NMEA,$GPGSV,1,1,04,08,51,302,25,10,57,023,27,27,75,232,25,32,56,133,31,1*6F,1774106075001
NMEA,$GPGSV,1,1,04,08,51,302,18,23,21,046,21,27,75,232,27,32,56,133,23,8*6D,1774106075001
NMEA,$GAGSV,1,1,04,06,48,109,23,09,42,146,22,11,52,045,22,36,46,318,23,7*72,1774106075001
NMEA,$GAGSV,1,1,02,04,40,073,23,06,48,109,25,1*77,1774106075001
NMEA,$GQGSV,1,1,01,05,00,000,36,1*54,1774106075001
NMEA,$GBGSV,1,1,03,35,41,318,25,29,72,093,25,20,59,048,26,1*4E,1774106075001
NMEA,$GBGSV,1,1,02,20,59,048,23,29,72,093,25,5*70,1774106075001
NMEA,$GNGSA,A,3,08,10,23,27,32,,,,,,,,1.3,1.0,0.9,1*37,1774106075007
NMEA,$PSSGR,GSA,A,3,08,23,27,32,,,,,,,,,1.3,1.0,0.9,1,8*42,1774106075007
NMEA,$GNGSA,A,3,04,06,09,36,,,,,,,,,1.3,1.0,0.9,3*37,1774106075007
NMEA,$PSSGR,GSA,A,2,304,306,,,,,,,,,,,1.3,1.0,0.9,3,1*47,1774106075007
NMEA,$GNGSA,A,3,20,29,35,,,,,,,,,,1.3,1.0,0.9,4*31,1774106075007
NMEA,$PSSGR,GSA,A,2,220,229,,,,,,,,,,,1.3,1.0,0.9,4,5*4F,1774106075007
NMEA,$GNVTG,,T,,M,0.0,N,0.0,K,A*3D,1774106075007
NMEA,$GNDTM,W84,,0000.000000,N,00000.000000,E,0.000,W84*41,1774106075007
NMEA,$GNRMC,151435.00,A,3210.109818,N,03448.789861,E,0.0,,210326,5.2,E,A,V*70,1774106075007
NMEA,$GNGNS,151435.00,3210.109818,N,03448.789861,E,ANAANN,12,1.0,12.9,19.1,,,V*10,1774106075007
NMEA,$GNGGA,151435.00,3210.109818,N,03448.789861,E,1,12,1.0,12.9,M,19.1,M,,*4F,1774106075007
NMEA,$PSMSG,magcal=PASS,bluesky=0*00,1774106075011
NMEA,$GPGSV,1,1,04,08,51,302,28,10,57,023,31,27,75,232,25,32,56,133,34,1*60,1774106075998
NMEA,$GPGSV,1,1,04,08,51,302,23,23,21,046,21,27,75,232,28,32,56,133,24,8*6D,1774106075998
NMEA,$GAGSV,1,1,04,06,48,109,21,09,42,146,22,11,52,045,26,36,46,318,22,7*75,1774106075998
NMEA,$GAGSV,1,1,02,04,40,073,23,06,48,109,27,1*75,1774106075998
NMEA,$GQGSV,1,1,01,05,00,000,40,1*55,1774106075998
NMEA,$GBGSV,1,1,04,35,41,318,22,29,72,093,26,20,59,048,23,19,65,201,27,1*75,1774106075998
NMEA,$GBGSV,1,1,03,20,59,048,22,29,72,093,25,35,41,318,19,5*41,1774106075998
NMEA,$GNGSA,A,3,08,10,23,27,32,,,,,,,,1.3,0.9,0.9,1*3F,1774106076006
NMEA,$PSSGR,GSA,A,3,08,23,27,32,,,,,,,,,1.3,0.9,0.9,1,8*4A,1774106076006
NMEA,$GNGSA,A,3,04,06,09,36,,,,,,,,,1.3,0.9,0.9,3*3F,1774106076006
NMEA,$PSSGR,GSA,A,2,304,306,,,,,,,,,,,1.3,0.9,0.9,3,1*4F,1774106076006
NMEA,$GNGSA,A,3,19,20,29,35,,,,,,,,,1.3,0.9,0.9,4*31,1774106076006
NMEA,$PSSGR,GSA,A,2,220,229,235,,,,,,,,,,1.3,0.9,0.9,4,5*73,1774106076006
NMEA,$GNVTG,,T,,M,0.0,N,0.0,K,A*3D,1774106076006
NMEA,$GNDTM,W84,,0000.000000,N,00000.000000,E,0.000,W84*41,1774106076006
NMEA,$GNRMC,151436.00,A,3210.109359,N,03448.791321,E,0.0,,210326,5.2,E,A,V*7B,1774106076006
NMEA,$GNGNS,151436.00,3210.109359,N,03448.791321,E,ANAANN,13,0.9,15.6,19.1,,,V*1A,1774106076006
NMEA,$GNGGA,151436.00,3210.109359,N,03448.791321,E,1,12,0.9,15.6,M,19.1,M,,*44,1774106076006
NMEA,$PSMSG,magcal=PASS,bluesky=0*00,1774106076015
NMEA,$GPGSV,1,1,04,08,51,302,28,10,57,023,32,27,75,232,20,32,56,133,36,1*64,1774106076998
NMEA,$GPGSV,2,1,05,08,51,302,23,18,12,094,17,23,21,046,21,27,75,232,29,8*6A,1774106076998
NMEA,$GPGSV,2,2,05,32,56,133,22,8*5B,1774106076998
NMEA,$GAGSV,1,1,04,06,48,109,21,09,42,146,21,11,52,045,27,36,46,318,22,7*77,1774106076998
NMEA,$GAGSV,1,1,03,04,40,073,23,06,48,109,28,36,46,318,20,1*44,1774106076998
NMEA,$GQGSV,1,1,01,05,00,000,41,1*54,1774106076998
NMEA,$GBGSV,1,1,04,35,41,318,28,29,72,093,31,20,59,048,29,19,65,201,26,1*72,1774106076998
NMEA,$GBGSV,1,1,04,19,65,201,18,20,59,048,25,29,72,093,27,35,41,318,19,5*72,1774106076998
NMEA,$GNGSA,A,3,08,10,23,27,32,,,,,,,,1.3,0.9,0.9,1*3F,1774106077005
NMEA,$PSSGR,GSA,A,3,08,23,27,32,,,,,,,,,1.3,0.9,0.9,1,8*4A,1774106077005
NMEA,$GNGSA,A,3,04,06,09,36,,,,,,,,,1.3,0.9,0.9,3*3F,1774106077005
NMEA,$PSSGR,GSA,A,2,304,306,,,,,,,,,,,1.3,0.9,0.9,3,1*4F,1774106077005
NMEA,$GNGSA,A,3,19,20,29,35,,,,,,,,,1.3,0.9,0.9,4*31,1774106077005
NMEA,$PSSGR,GSA,A,2,220,229,235,,,,,,,,,,1.3,0.9,0.9,4,5*73,1774106077005
NMEA,$GNVTG,,T,,M,0.0,N,0.0,K,A*3D,1774106077005
NMEA,$GNDTM,W84,,0000.000000,N,00000.000000,E,0.000,W84*41,1774106077005
NMEA,$GNRMC,151437.00,A,3210.109111,N,03448.791360,E,0.0,,210326,5.2,E,A,V*71,1774106077005
NMEA,$GNGNS,151437.00,3210.109111,N,03448.791360,E,ANAANN,13,0.9,15.9,19.1,,,V*1F,1774106077005
NMEA,$GNGGA,151437.00,3210.109111,N,03448.791360,E,1,12,0.9,15.9,M,19.1,M,,*41,1774106077005
NMEA,$PSMSG,magcal=PASS,bluesky=0*00,1774106077014
NMEA,$GPGSV,1,1,04,08,51,302,26,10,57,023,33,27,75,232,20,32,56,133,34,1*69,1774106077997
NMEA,$GPGSV,2,1,05,08,51,302,21,18,12,094,17,23,21,046,18,27,75,232,29,8*62,1774106077997
NMEA,$GPGSV,2,2,05,32,56,133,22,8*5B,1774106077997
NMEA,$GAGSV,1,1,04,06,48,109,21,09,42,146,21,11,52,045,25,36,46,318,22,7*75,1774106077997
NMEA,$GAGSV,1,1,04,04,40,073,23,06,48,109,27,10,32,072,16,36,46,318,22,1*7C,1774106077997
NMEA,$GQGSV,1,1,01,05,00,000,39,1*5B,1774106077997
NMEA,$GBGSV,1,1,04,35,41,318,25,29,72,093,29,20,59,048,28,19,65,201,24,1*75,1774106077997
NMEA,$GBGSV,1,1,04,19,65,201,18,20,59,048,25,29,72,093,24,35,41,318,21,5*7A,1774106077997
NMEA,$GNGSA,A,3,08,10,23,27,32,,,,,,,,1.2,0.9,0.9,1*3E,1774106078011
NMEA,$PSSGR,GSA,A,3,08,23,27,32,,,,,,,,,1.2,0.9,0.9,1,8*4B,1774106078011
NMEA,$GNGSA,A,3,04,06,09,36,,,,,,,,,1.2,0.9,0.9,3*3E,1774106078011
NMEA,$PSSGR,GSA,A,2,304,306,336,,,,,,,,,,1.2,0.9,0.9,3,1*78,1774106078011
NMEA,$GNGSA,A,3,19,20,29,35,,,,,,,,,1.2,0.9,0.9,4*30,1774106078011
NMEA,$PSSGR,GSA,A,2,220,229,235,,,,,,,,,,1.2,0.9,0.9,4,5*72,1774106078011
NMEA,$GNVTG,,T,,M,0.0,N,0.0,K,A*3D,1774106078011
NMEA,$GNDTM,W84,,0000.000000,N,00000.000000,E,0.000,W84*41,1774106078011
NMEA,$GNRMC,151438.00,A,3210.108498,N,03448.791743,E,0.0,,210326,5.2,E,A,V*7E,1774106078011
NMEA,$GNGNS,151438.00,3210.108498,N,03448.791743,E,ANAANN,13,0.9,14.9,19.1,,,V*11,1774106078011
NMEA,$GNGGA,151438.00,3210.108498,N,03448.791743,E,1,12,0.9,14.9,M,19.1,M,,*4F,1774106078011
NMEA,$PSMSG,magcal=PASS,bluesky=0*00,1774106078017
NMEA,$GPGSV,1,1,04,08,51,302,25,10,57,023,30,27,75,232,20,32,56,133,33,1*6E,1774106079001
NMEA,$GPGSV,2,1,05,08,51,302,21,18,12,094,17,23,21,046,18,27,75,232,31,8*6B,1774106079001
NMEA,$GPGSV,2,2,05,32,56,133,22,8*5B,1774106079001
NMEA,$GAGSV,1,1,04,06,48,109,20,09,42,146,20,11,52,045,23,36,46,318,18,7*7A,1774106079001
NMEA,$GAGSV,1,1,04,04,40,073,20,06,48,109,27,10,32,072,16,36,46,318,22,1*7F,1774106079001
NMEA,$GQGSV,1,1,01,05,00,000,39,1*5B,1774106079001
NMEA,$GBGSV,1,1,04,35,41,318,24,29,72,093,28,20,59,048,26,19,65,201,24,1*7B,1774106079001
NMEA,$GBGSV,1,1,04,19,65,201,19,20,59,048,24,29,72,093,25,35,41,318,22,5*78,1774106079001
NMEA,$GNGSA,A,3,08,10,23,27,32,,,,,,,,1.2,0.9,0.9,1*3E,1774106079015
NMEA,$PSSGR,GSA,A,3,08,23,27,32,,,,,,,,,1.2,0.9,0.9,1,8*4B,1774106079015
NMEA,$GNGSA,A,3,04,06,09,36,,,,,,,,,1.2,0.9,0.9,3*3E,1774106079015
NMEA,$PSSGR,GSA,A,2,304,306,336,,,,,,,,,,1.2,0.9,0.9,3,1*78,1774106079015
NMEA,$GNGSA,A,3,19,20,29,35,,,,,,,,,1.2,0.9,0.9,4*30,1774106079015
NMEA,$PSSGR,GSA,A,2,220,229,235,,,,,,,,,,1.2,0.9,0.9,4,5*72,1774106079015
NMEA,$GNVTG,,T,,M,0.0,N,0.0,K,A*3D,1774106079015
NMEA,$GNDTM,W84,,0000.000000,N,00000.000000,E,0.000,W84*41,1774106079015
NMEA,$GNRMC,151439.00,A,3210.108447,N,03448.791647,E,0.0,,210326,5.2,E,A,V*78,1774106079015
NMEA,$GNGNS,151439.00,3210.108447,N,03448.791647,E,ANAANN,13,0.9,14.4,19.1,,,V*1A,1774106079015
NMEA,$GNGGA,151439.00,3210.108447,N,03448.791647,E,1,12,0.9,14.4,M,19.1,M,,*44,1774106079015
NMEA,$PSMSG,magcal=PASS,bluesky=0*00,1774106079019
NMEA,$GPGSV,1,1,04,08,51,302,28,10,57,023,29,27,75,232,24,32,56,133,28,1*65,1774106079998
NMEA,$GPGSV,2,1,06,08,51,302,21,10,57,023,16,18,12,094,17,23,21,046,18,8*6B,1774106079998
NMEA,$GPGSV,2,2,06,27,75,232,31,32,56,133,22,8*6E,1774106079998
NMEA,$GAGSV,1,1,04,06,48,109,25,09,42,146,20,11,52,045,23,36,46,318,29,7*7D,1774106079998
NMEA,$GAGSV,2,1,05,02,28,279,21,04,40,073,20,06,48,109,25,10,32,072,16,1*75,1774106079998
NMEA,$GAGSV,2,2,05,36,46,318,22,1*4D,1774106079998
NMEA,$GQGSV,1,1,01,05,00,000,36,1*54,1774106079998
NMEA,$GBGSV,1,1,04,35,41,318,28,29,72,093,32,20,59,048,27,19,65,201,23,1*7A,1774106079998
NMEA,$GBGSV,1,1,04,19,65,201,19,20,59,048,22,29,72,093,23,35,41,318,22,5*78,1774106079998
NMEA,$GNGSA,A,3,08,10,23,27,32,,,,,,,,1.2,0.8,0.9,1*3F,1774106080006
NMEA,$PSSGR,GSA,A,3,08,23,27,32,,,,,,,,,1.2,0.8,0.9,1,8*4A,1774106080006
NMEA,$GNGSA,A,3,02,04,06,09,36,,,,,,,,1.2,0.8,0.9,3*3D,1774106080006
NMEA,$PSSGR,GSA,A,3,302,304,306,336,,,,,,,,,1.2,0.8,0.9,3,1*49,1774106080006
NMEA,$GNGSA,A,3,19,20,29,35,,,,,,,,,1.2,0.8,0.9,4*31,1774106080006
NMEA,$PSSGR,GSA,A,2,220,229,235,,,,,,,,,,1.2,0.8,0.9,4,5*73,1774106080006
NMEA,$GNVTG,,T,,M,0.0,N,0.0,K,A*3D,1774106080006
NMEA,$GNDTM,W84,,0000.000000,N,00000.000000,E,0.000,W84*41,1774106080006
NMEA,$GNRMC,151440.00,A,3210.109165,N,03448.792343,E,0.0,,210326,5.2,E,A,V*70,1774106080006
NMEA,$GNGNS,151440.00,3210.109165,N,03448.792343,E,ANAANN,14,0.8,18.6,19.1,,,V*1A,1774106080006
NMEA,$GNGGA,151440.00,3210.109165,N,03448.792343,E,1,12,0.8,18.6,M,19.1,M,,*43,1774106080006
NMEA,$PSMSG,magcal=PASS,bluesky=0*00,1774106080011
NMEA,$GPGSV,2,1,05,08,51,302,27,10,57,023,29,23,21,046,24,27,75,232,29,1*6A,1774106081001
NMEA,$GPGSV,2,2,05,32,56,133,30,1*51,1774106081001
NMEA,$GPGSV,2,1,06,08,51,302,24,10,57,023,16,18,12,094,17,23,21,046,18,8*6E,1774106081001
NMEA,$GPGSV,2,2,06,27,75,232,25,32,56,133,22,8*6B,1774106081001
NMEA,$GLGSV,1,1,01,66,54,188,25,1*4E,1774106081001
NMEA,$GAGSV,2,1,05,04,40,073,26,06,48,109,23,09,42,146,20,11,52,045,21,7*7D,1774106081001
NMEA,$GAGSV,2,2,05,36,46,318,21,7*48,1774106081001
NMEA,$GAGSV,2,1,05,02,28,279,21,04,40,073,20,06,48,109,22,10,32,072,16,1*72,1774106081001
NMEA,$GAGSV,2,2,05,36,46,318,22,1*4D,1774106081001
NMEA,$GQGSV,1,1,01,05,00,000,31,1*53,1774106081001
NMEA,$GBGSV,1,1,04,35,41,318,25,29,72,093,27,20,59,048,28,19,65,201,23,1*7C,1774106081001
NMEA,$GBGSV,1,1,04,19,65,201,19,20,59,048,22,29,72,093,23,35,41,318,22,5*78,1774106081001
NMEA,$GNGSA,A,3,08,10,23,27,32,,,,,,,,1.1,0.7,0.9,1*33,1774106081015
NMEA,$PSSGR,GSA,A,2,08,27,32,,,,,,,,,,1.1,0.7,0.9,1,8*46,1774106081015
NMEA,$GNGSA,A,3,66,,,,,,,,,,,,1.1,0.7,0.9,2*3C,1774106081015
NMEA,$GNGSA,A,3,02,04,06,09,36,,,,,,,,1.1,0.7,0.9,3*31,1774106081015
NMEA,$PSSGR,GSA,A,3,302,304,306,336,,,,,,,,,1.1,0.7,0.9,3,1*45,1774106081015
NMEA,$GNGSA,A,3,19,20,29,35,,,,,,,,,1.1,0.7,0.9,4*3D,1774106081015
NMEA,$PSSGR,GSA,A,3,219,220,229,235,,,,,,,,,1.1,0.7,0.9,4,5*44,1774106081015
NMEA,$GNVTG,,T,,M,0.0,N,0.0,K,A*3D,1774106081015
NMEA,$GNDTM,W84,,0000.000000,N,00000.000000,E,0.000,W84*41,1774106081015
NMEA,$GNRMC,151441.00,A,3210.109680,N,03448.792587,E,0.0,,210326,5.2,E,A,V*73,1774106081015
NMEA,$GNGNS,151441.00,3210.109680,N,03448.792587,E,AAAANN,15,0.7,20.0,19.1,,,V*15,1774106081015
NMEA,$GNGGA,151441.00,3210.109680,N,03448.792587,E,1,12,0.7,20.0,M,19.1,M,,*42,1774106081015
NMEA,$PSMSG,magcal=PASS,bluesky=0*00,1774106081022
NMEA,$GPGSV,2,1,05,08,51,302,29,10,57,023,41,23,21,046,30,27,75,232,26,1*60,1774106081997
NMEA,$GPGSV,2,2,05,32,56,133,30,1*51,1774106081997
NMEA,$GPGSV,2,1,06,08,51,302,22,10,57,023,24,18,12,094,17,23,21,046,20,8*62,1774106081997
NMEA,$GPGSV,2,2,06,27,75,232,24,32,56,133,20,8*68,1774106081997
NMEA,$GLGSV,1,1,01,66,54,188,26,1*4D,1774106081997
NMEA,$GAGSV,2,1,05,04,40,073,25,06,48,109,25,09,42,146,24,11,52,045,28,7*75,1774106081997
NMEA,$GAGSV,2,2,05,36,46,318,32,7*4A,1774106081997
NMEA,$GAGSV,2,1,07,02,28,279,21,04,40,073,17,06,48,109,23,09,42,146,17,1*7D,1774106081997
NMEA,$GAGSV,2,2,07,10,32,072,18,11,52,045,15,36,46,318,22,1*41,1774106081997
NMEA,$GQGSV,1,1,01,05,00,000,35,1*57,1774106081997
NMEA,$GBGSV,2,1,05,35,41,318,33,29,72,093,30,20,59,048,37,19,65,201,26,1*74,1774106081997
NMEA,$GBGSV,2,2,05,13,27,039,26,1*4A,1774106081997
NMEA,$GBGSV,1,1,04,19,65,201,19,20,59,048,25,29,72,093,23,35,41,318,22,5*7F,1774106081997
NMEA,$GNGSA,A,3,08,10,23,27,32,,,,,,,,1.1,0.7,0.9,1*33,1774106082007
NMEA,$PSSGR,GSA,A,3,08,10,27,32,,,,,,,,,1.1,0.7,0.9,1,8*46,1774106082007
NMEA,$GNGSA,A,3,66,,,,,,,,,,,,1.1,0.7,0.9,2*3C,1774106082007
NMEA,$GNGSA,A,3,02,04,06,09,36,,,,,,,,1.1,0.7,0.9,3*31,1774106082007
NMEA,$PSSGR,GSA,A,3,302,304,306,336,,,,,,,,,1.1,0.7,0.9,3,1*45,1774106082007
NMEA,$GNGSA,A,3,13,19,20,29,35,,,,,,,,1.1,0.7,0.9,4*3F,1774106082007
NMEA,$PSSGR,GSA,A,3,219,220,229,235,,,,,,,,,1.1,0.7,0.9,4,5*44,1774106082007
NMEA,$GNVTG,,T,,M,0.0,N,0.0,K,A*3D,1774106082007
NMEA,$GNDTM,W84,,0000.000000,N,00000.000000,E,0.000,W84*41,1774106082007
NMEA,$GNRMC,151442.00,A,3210.110391,N,03448.792887,E,0.0,,210326,5.2,E,A,V*70,1774106082007
NMEA,$GNGNS,151442.00,3210.110391,N,03448.792887,E,AAAANN,16,0.7,21.0,19.1,,,V*14,1774106082007
NMEA,$GNGGA,151442.00,3210.110391,N,03448.792887,E,1,12,0.7,21.0,M,19.1,M,,*40,1774106082007
NMEA,$PSMSG,magcal=PASS,bluesky=0*00,1774106082013
NMEA,$GPGSV,2,1,05,08,51,302,34,10,57,023,40,23,21,046,27,27,75,232,33,1*6F,1774106082999
NMEA,$GPGSV,2,2,05,32,56,133,26,1*56,1774106082999
NMEA,$GPGSV,2,1,06,08,51,302,26,10,57,023,32,18,12,094,17,23,21,046,21,8*60,1774106082999
NMEA,$GPGSV,2,2,06,27,75,232,25,32,56,133,22,8*6B,1774106082999
NMEA,$GLGSV,1,1,01,66,54,188,25,1*4E,1774106082999
NMEA,$GAGSV,2,1,07,02,28,279,30,04,40,073,25,06,48,109,26,09,42,146,26,7*7D,1774106082999
NMEA,$GAGSV,2,2,07,10,32,072,28,11,52,045,33,36,46,318,30,7*43,1774106082999
NMEA,$GAGSV,2,1,07,02,28,279,20,04,40,073,24,06,48,109,23,09,42,146,17,1*7C,1774106082999
NMEA,$GAGSV,2,2,07,10,32,072,24,11,52,045,27,36,46,318,22,1*4F,1774106082999
NMEA,$GQGSV,1,1,01,05,00,000,36,1*54,1774106082999
NMEA,$GBGSV,2,1,05,35,41,318,30,29,72,093,32,20,59,048,38,19,65,201,25,1*79,1774106082999
NMEA,$GBGSV,2,2,05,13,27,039,29,1*45,1774106082999
NMEA,$GBGSV,1,1,04,19,65,201,20,20,59,048,30,29,72,093,20,35,41,318,23,5*73,1774106082999
NMEA,$GNGSA,A,3,08,10,23,27,32,,,,,,,,1.0,0.6,0.8,1*32,1774106083013
NMEA,$PSSGR,GSA,A,3,08,10,23,27,32,,,,,,,,1.0,0.6,0.8,1,8*46,1774106083013
NMEA,$GNGSA,A,3,66,,,,,,,,,,,,1.0,0.6,0.8,2*3D,1774106083013
NMEA,$GNGSA,A,3,02,04,06,09,10,36,,,,,,,1.0,0.6,0.8,3*31,1774106083013
NMEA,$PSSGR,GSA,A,3,302,304,306,310,336,,,,,,,,1.0,0.6,0.8,3,1*76,1774106083013
NMEA,$GNGSA,A,3,13,19,20,29,35,,,,,,,,1.0,0.6,0.8,4*3E,1774106083013
NMEA,$PSSGR,GSA,A,3,219,220,229,235,,,,,,,,,1.0,0.6,0.8,4,5*45,1774106083013
NMEA,$GNVTG,,T,,M,0.0,N,0.0,K,A*3D,1774106083013
NMEA,$GNDTM,W84,,0000.000000,N,00000.000000,E,0.000,W84*41,1774106083013
NMEA,$GNRMC,151443.00,A,3210.110665,N,03448.792963,E,0.0,,210326,5.2,E,A,V*74,1774106083013
NMEA,$GNGNS,151443.00,3210.110665,N,03448.792963,E,AAAANN,17,0.6,21.3,19.1,,,V*13,1774106083013
NMEA,$GNGGA,151443.00,3210.110665,N,03448.792963,E,1,12,0.6,21.3,M,19.1,M,,*46,1774106083013
NMEA,$PSMSG,magcal=PASS,bluesky=0*00,1774106083017
NMEA,$GPGSV,2,1,05,08,51,302,33,10,57,023,39,23,21,046,27,27,75,232,34,1*61,1774106083998
NMEA,$GPGSV,2,2,05,32,56,133,30,1*51,1774106083998
NMEA,$GPGSV,2,1,06,08,51,302,25,10,57,023,33,18,12,094,17,23,21,046,22,8*61,1774106083998
NMEA,$GPGSV,2,2,06,27,75,232,27,32,56,133,22,8*69,1774106083998
NMEA,$GLGSV,1,1,04,66,54,188,29,,00,000,39,87,16,109,17,,00,000,30,1*78,1774106083998
NMEA,$GAGSV,2,1,07,02,28,279,28,04,40,073,23,06,48,109,25,09,42,146,23,7*74,1774106083998
NMEA,$GAGSV,2,2,07,10,32,072,24,11,52,045,31,36,46,318,30,7*4D,1774106083998
NMEA,$GAGSV,2,1,07,02,28,279,22,04,40,073,22,06,48,109,19,09,42,146,17,1*71,1774106083998
NMEA,$GAGSV,2,2,07,10,32,072,23,11,52,045,23,36,46,318,24,1*4A,1774106083998
NMEA,$GQGSV,1,1,01,05,00,000,37,1*55,1774106083998
NMEA,$GBGSV,2,1,05,35,41,318,33,29,72,093,31,20,59,048,38,19,65,201,31,1*7C,1774106083998
NMEA,$GBGSV,2,2,05,13,27,039,27,1*4B,1774106083998
NMEA,$GBGSV,1,1,04,19,65,201,25,20,59,048,30,29,72,093,24,35,41,318,28,5*79,1774106083998
NMEA,$GNGSA,A,3,08,10,23,27,32,,,,,,,,1.0,0.6,0.8,1*32,1774106084008
NMEA,$PSSGR,GSA,A,3,08,10,23,27,32,,,,,,,,1.0,0.6,0.8,1,8*46,1774106084008
NMEA,$GNGSA,A,3,66,,,,,,,,,,,,1.0,0.6,0.8,2*3D,1774106084008
NMEA,$GNGSA,A,3,02,04,06,09,10,36,,,,,,,1.0,0.6,0.8,3*31,1774106084008
NMEA,$PSSGR,GSA,A,3,302,304,306,310,336,,,,,,,,1.0,0.6,0.8,3,1*76,1774106084008
NMEA,$GNGSA,A,3,13,19,20,29,35,,,,,,,,1.0,0.6,0.8,4*3E,1774106084008
NMEA,$PSSGR,GSA,A,3,219,220,229,235,,,,,,,,,1.0,0.6,0.8,4,5*45,1774106084008
NMEA,$GNVTG,,T,,M,0.0,N,0.0,K,A*3D,1774106084008
NMEA,$GNDTM,W84,,0000.000000,N,00000.000000,E,0.000,W84*41,1774106084008
NMEA,$GNRMC,151444.00,A,3210.111109,N,03448.793429,E,0.0,,210326,5.2,E,A,V*7D,1774106084008
NMEA,$GNGNS,151444.00,3210.111109,N,03448.793429,E,AAAANN,17,0.6,22.8,19.1,,,V*12,1774106084008
NMEA,$GNGGA,151444.00,3210.111109,N,03448.793429,E,1,12,0.6,22.8,M,19.1,M,,*47,1774106084008
NMEA,$PSMSG,magcal=PASS,bluesky=0*00,1774106084018
NMEA,$GPGSV,2,1,05,08,51,302,37,10,57,023,38,23,21,046,26,27,75,232,34,1*65,1774106084998
NMEA,$GPGSV,2,2,05,32,56,133,32,1*53,1774106084998
NMEA,$GPGSV,2,1,06,08,51,302,28,10,57,023,29,18,12,094,17,23,21,046,22,8*67,1774106084998
NMEA,$GPGSV,2,2,06,27,75,232,28,32,56,133,21,8*65,1774106084998
NMEA,$GLGSV,2,1,05,66,54,188,30,,00,000,34,87,16,109,17,,00,000,30,1*7F,1774106084998
NMEA,$GLGSV,2,2,05,72,14,028,18,1*4E,1774106084998
NMEA,$GAGSV,2,1,07,02,28,279,29,04,40,073,30,06,48,109,26,09,42,146,20,7*77,1774106084998
NMEA,$GAGSV,2,2,07,10,32,072,24,11,52,045,28,36,46,318,25,7*41,1774106084998
NMEA,$GAGSV,2,1,07,02,28,279,27,04,40,073,26,06,48,109,23,09,42,146,17,1*79,1774106084998
NMEA,$GAGSV,2,2,07,10,32,072,25,11,52,045,23,36,46,318,25,1*4D,1774106084998
NMEA,$GQGSV,1,1,01,05,00,000,37,1*55,1774106084998
NMEA,$GBGSV,2,1,05,35,41,318,32,29,72,093,34,20,59,048,36,19,65,201,32,1*75,1774106084998
NMEA,$GBGSV,2,2,05,13,27,039,28,1*44,1774106084998
NMEA,$GBGSV,1,1,04,19,65,201,26,20,59,048,29,29,72,093,27,35,41,318,22,5*7B,1774106084998
NMEA,$GNGSA,A,3,08,10,23,27,32,,,,,,,,1.0,0.6,0.8,1*32,1774106085006
NMEA,$PSSGR,GSA,A,3,08,10,23,27,32,,,,,,,,1.0,0.6,0.8,1,8*46,1774106085006
NMEA,$GNGSA,A,3,66,72,,,,,,,,,,,1.0,0.6,0.8,2*38,1774106085006
NMEA,$GNGSA,A,3,02,04,06,09,10,36,,,,,,,1.0,0.6,0.8,3*31,1774106085006
NMEA,$PSSGR,GSA,A,3,302,304,306,310,336,,,,,,,,1.0,0.6,0.8,3,1*76,1774106085006
NMEA,$GNGSA,A,3,13,19,20,29,35,,,,,,,,1.0,0.6,0.8,4*3E,1774106085006
NMEA,$PSSGR,GSA,A,3,219,220,229,235,,,,,,,,,1.0,0.6,0.8,4,5*45,1774106085006
NMEA,$GNVTG,45.4,T,40.2,M,3.2,N,5.9,K,A*33,1774106085006
NMEA,$GNDTM,W84,,0000.000000,N,00000.000000,E,0.000,W84*41,1774106085006
NMEA,$GNRMC,151445.00,A,3210.111736,N,03448.793996,E,3.2,45.4,210326,5.2,E,A,V*65,1774106085006
NMEA,$GNGNS,151445.00,3210.111736,N,03448.793996,E,AAAANN,18,0.6,22.5,19.1,,,V*12,1774106085006
NMEA,$GNGGA,151445.00,3210.111736,N,03448.793996,E,1,12,0.6,22.5,M,19.1,M,,*48,1774106085006
NMEA,$PSMSG,magcal=PASS,bluesky=0*00,1774106085012
NMEA,$GPGSV,2,1,05,08,51,302,36,10,57,023,33,23,21,046,26,27,75,232,35,1*6E,1774106085999
NMEA,$GPGSV,2,2,05,32,56,133,33,1*52,1774106085999
NMEA,$GPGSV,2,1,06,08,51,302,26,10,57,023,26,18,12,094,17,23,21,046,22,8*66,1774106085999
NMEA,$GPGSV,2,2,06,27,75,232,29,32,56,133,23,8*66,1774106085999
NMEA,$GLGSV,2,1,06,,00,000,29,66,54,188,29,,00,000,29,87,16,109,17,1*70,1774106085999
NMEA,$GLGSV,2,2,06,,00,000,30,72,14,028,18,1*7E,1774106085999
NMEA,$GAGSV,2,1,07,02,28,279,27,04,40,073,23,06,48,109,25,09,42,146,25,7*7D,1774106085999
NMEA,$GAGSV,2,2,07,10,32,072,19,11,52,045,25,36,46,318,31,7*47,1774106085999
NMEA,$GAGSV,2,1,07,02,28,279,28,04,40,073,26,06,48,109,25,09,42,146,18,1*7F,1774106085999
NMEA,$GAGSV,2,2,07,10,32,072,25,11,52,045,21,36,46,318,27,1*4D,1774106085999
NMEA,$GQGSV,1,1,01,05,00,000,34,1*56,1774106085999
NMEA,$GBGSV,2,1,05,35,41,318,33,29,72,093,28,20,59,048,28,19,65,201,33,1*77,1774106085999
NMEA,$GBGSV,2,2,05,13,27,039,28,1*44,1774106085999
NMEA,$GBGSV,1,1,04,19,65,201,26,20,59,048,22,29,72,093,27,35,41,318,25,5*77,1774106085999
NMEA,$GNGSA,A,3,08,10,23,27,32,,,,,,,,1.0,0.6,0.8,1*32,1774106086011
NMEA,$PSSGR,GSA,A,3,08,10,23,27,32,,,,,,,,1.0,0.6,0.8,1,8*46,1774106086011
NMEA,$GNGSA,A,3,66,72,,,,,,,,,,,1.0,0.6,0.8,2*38,1774106086011
NMEA,$GNGSA,A,3,02,04,06,09,10,36,,,,,,,1.0,0.6,0.8,3*31,1774106086011
NMEA,$PSSGR,GSA,A,3,302,304,306,310,336,,,,,,,,1.0,0.6,0.8,3,1*76,1774106086011
NMEA,$GNGSA,A,3,13,19,20,29,35,,,,,,,,1.0,0.6,0.8,4*3E,1774106086011
NMEA,$PSSGR,GSA,A,3,219,220,229,235,,,,,,,,,1.0,0.6,0.8,4,5*45,1774106086011
NMEA,$GNVTG,106.1,T,100.9,M,1.4,N,2.6,K,A*32,1774106086011
NMEA,$GNDTM,W84,,0000.000000,N,00000.000000,E,0.000,W84*41,1774106086011
NMEA,$GNRMC,151446.00,A,3210.112062,N,03448.794213,E,1.4,106.1,210326,5.2,E,A,V*55,1774106086011
NMEA,$GNGNS,151446.00,3210.112062,N,03448.794213,E,AAAANN,18,0.6,23.7,19.1,,,V*16,1774106086011
NMEA,$GNGGA,151446.00,3210.112062,N,03448.794213,E,1,12,0.6,23.7,M,19.1,M,,*4C,1774106086011
NMEA,$PSMSG,magcal=PASS,bluesky=0*00,1774106086022
NMEA,$GPGSV,2,1,05,08,51,302,34,10,57,023,36,23,21,046,22,27,75,232,31,1*69,1774106086999
NMEA,$GPGSV,2,2,05,32,56,133,37,1*56,1774106086999
NMEA,$GPGSV,2,1,06,08,51,302,24,10,57,023,29,18,12,094,17,23,21,046,22,8*6B,1774106086999
NMEA,$GPGSV,2,2,06,27,75,232,25,32,56,133,27,8*6E,1774106086999
NMEA,$GLGSV,2,1,06,,00,000,29,66,54,188,30,,00,000,34,87,16,109,17,1*74,1774106086999
NMEA,$GLGSV,2,2,06,,00,000,34,72,14,028,18,1*7A,1774106086999
NMEA,$GAGSV,2,1,07,02,28,279,25,04,40,073,21,06,48,109,25,09,42,146,26,7*7E,1774106086999
NMEA,$GAGSV,2,2,07,10,32,072,19,11,52,045,27,36,46,318,29,7*4C,1774106086999
NMEA,$GAGSV,2,1,07,02,28,279,23,04,40,073,20,06,48,109,27,09,42,146,28,1*73,1774106086999
NMEA,$GAGSV,2,2,07,10,32,072,19,11,52,045,21,36,46,318,22,1*47,1774106086999
NMEA,$GQGSV,1,1,01,05,00,000,38,1*5A,1774106086999
NMEA,$GBGSV,2,1,06,35,41,318,35,30,22,123,29,29,72,093,31,20,59,048,29,1*7B,1774106086999
NMEA,$GBGSV,2,2,06,19,65,201,28,13,27,039,24,1*79,1774106086999
NMEA,$GBGSV,1,1,04,19,65,201,24,20,59,048,29,29,72,093,28,35,41,318,28,5*7C,1774106086999
NMEA,$GNGSA,A,3,08,10,23,27,32,,,,,,,,0.9,0.6,0.7,1*35,1774106087009
NMEA,$PSSGR,GSA,A,3,08,10,23,27,32,,,,,,,,0.9,0.6,0.7,1,8*41,1774106087009
NMEA,$GNGSA,A,3,66,72,,,,,,,,,,,0.9,0.6,0.7,2*3F,1774106087009
NMEA,$GNGSA,A,3,02,04,06,09,10,36,,,,,,,0.9,0.6,0.7,3*36,1774106087009
NMEA,$PSSGR,GSA,A,3,302,304,306,309,310,336,,,,,,,0.9,0.6,0.7,3,1*4B,1774106087009
NMEA,$GNGSA,A,3,13,19,20,29,30,35,,,,,,,0.9,0.6,0.7,4*3A,1774106087009
NMEA,$PSSGR,GSA,A,3,219,220,229,235,,,,,,,,,0.9,0.6,0.7,4,5*42,1774106087009
NMEA,$GNVTG,87.0,T,81.8,M,3.5,N,6.5,K,A*36,1774106087009
NMEA,$GNDTM,W84,,0000.000000,N,00000.000000,E,0.000,W84*41,1774106087009
NMEA,$GNRMC,151447.00,A,3210.112383,N,03448.794971,E,3.5,87.0,210326,5.2,E,A,V*6D,1774106087009
NMEA,$GNGNS,151447.00,3210.112383,N,03448.794971,E,AAAANN,19,0.6,24.6,19.1,,,V*13,1774106087009
NMEA,$GNGGA,151447.00,3210.112383,N,03448.794971,E,1,12,0.6,24.6,M,19.1,M,,*48,1774106087009
NMEA,$PSMSG,magcal=PASS,bluesky=0*00,1774106087014
NMEA,$GPGSV,1,1,04,08,51,302,37,10,57,023,36,27,75,232,35,32,56,133,38,1*64,1774106087998
NMEA,$GPGSV,2,1,06,08,51,302,25,10,57,023,31,18,12,094,17,23,21,046,22,8*63,1774106087998
NMEA,$GPGSV,2,2,06,27,75,232,27,32,56,133,30,8*6A,1774106087998
NMEA,$GLGSV,2,1,06,,00,000,29,66,54,188,33,,00,000,34,87,16,109,17,1*77,1774106087998
NMEA,$GLGSV,2,2,06,,00,000,35,72,14,028,20,1*70,1774106087998
NMEA,$GAGSV,2,1,07,02,28,279,25,04,40,073,26,06,48,109,25,09,42,146,30,7*7E,1774106087998
NMEA,$GAGSV,2,2,07,10,32,072,19,11,52,045,24,36,46,318,39,7*4E,1774106087998
NMEA,$GAGSV,2,1,07,02,28,279,25,04,40,073,20,06,48,109,29,09,42,146,29,1*7A,1774106087998
NMEA,$GAGSV,2,2,07,10,32,072,19,11,52,045,21,36,46,318,30,1*44,1774106087998
NMEA,$GQGSV,1,1,01,05,00,000,44,1*51,1774106087998
NMEA,$GBGSV,2,1,08,60,30,115,27,35,41,318,39,30,22,123,24,29,72,093,35,1*7C,1774106087998
NMEA,$GBGSV,2,2,08,20,59,048,31,19,65,201,33,13,27,039,23,05,46,138,27,1*72,1774106087998
NMEA,$GBGSV,2,1,05,19,65,201,30,20,59,048,28,29,72,093,29,30,22,123,14,5*7E,1774106087998
NMEA,$GBGSV,2,2,05,35,41,318,32,5*4F,1774106087998
NMEA,$GNGSA,A,3,08,10,23,27,32,,,,,,,,0.9,0.5,0.7,1*36,1774106088011
NMEA,$PSSGR,GSA,A,3,08,10,23,27,32,,,,,,,,0.9,0.5,0.7,1,8*42,1774106088011
NMEA,$GNGSA,A,3,66,72,,,,,,,,,,,0.9,0.5,0.7,2*3C,1774106088011
NMEA,$GNGSA,A,3,02,04,06,09,10,36,,,,,,,0.9,0.5,0.7,3*35,1774106088011
NMEA,$PSSGR,GSA,A,3,302,304,306,309,310,336,,,,,,,0.9,0.5,0.7,3,1*48,1774106088011
NMEA,$GNGSA,A,3,05,13,19,20,29,30,35,60,,,,,0.9,0.5,0.7,4*3A,1774106088011
NMEA,$PSSGR,GSA,A,3,219,220,229,235,,,,,,,,,0.9,0.5,0.7,4,5*41,1774106088011
NMEA,$GNVTG,64.4,T,59.2,M,1.9,N,3.6,K,A*38,1774106088011
NMEA,$GNDTM,W84,,0000.000000,N,00000.000000,E,0.000,W84*41,1774106088011
NMEA,$GNRMC,151448.00,A,3210.112583,N,03448.795749,E,1.9,64.4,210326,5.2,E,A,V*67,1774106088011
NMEA,$GNGNS,151448.00,3210.112583,N,03448.795749,E,AAAANN,21,0.5,23.1,19.1,,,V*16,1774106088011
NMEA,$GNGGA,151448.00,3210.112583,N,03448.795749,E,1,12,0.5,23.1,M,19.1,M,,*46,1774106088011
NMEA,$PSMSG,magcal=PASS,bluesky=0*00,1774106088017
NMEA,$GPGSV,2,1,06,02,00,000,34,06,00,000,42,08,51,302,40,10,57,023,34,1*68,1774106089001
NMEA,$GPGSV,2,2,06,27,75,232,35,32,56,133,29,1*68,1774106089001
NMEA,$GPGSV,2,1,06,08,51,302,32,10,57,023,29,18,12,094,17,23,21,046,22,8*6C,1774106089001
NMEA,$GPGSV,2,2,06,27,75,232,28,32,56,133,24,8*60,1774106089001
NMEA,$GLGSV,2,1,06,,00,000,29,66,54,188,31,,00,000,29,87,16,109,17,1*79,1774106089001
NMEA,$GLGSV,2,2,06,,00,000,35,72,14,028,20,1*70,1774106089001
NMEA,$GAGSV,2,1,07,02,28,279,30,04,40,073,23,06,48,109,23,09,42,146,26,7*7E,1774106089001
NMEA,$GAGSV,2,2,07,10,32,072,19,11,52,045,23,36,46,318,34,7*44,1774106089001
NMEA,$GAGSV,2,1,08,02,28,279,35,04,40,073,19,06,48,109,24,09,42,146,25,1*7F,1774106089001
NMEA,$GAGSV,2,2,08,10,32,072,19,11,52,045,21,25,26,219,15,36,46,318,27,1*70,1774106089001
NMEA,$GQGSV,1,1,01,05,00,000,43,1*56,1774106089001
NMEA,$GBGSV,2,1,08,60,30,115,27,35,41,318,36,30,22,123,24,29,72,093,32,1*74,1774106089001
NMEA,$GBGSV,2,2,08,20,59,048,32,19,65,201,34,13,27,039,23,05,46,138,27,1*76,1774106089001
NMEA,$GBGSV,2,1,05,19,65,201,29,20,59,048,25,29,72,093,24,30,22,123,14,5*76,1774106089001
NMEA,$GBGSV,2,2,05,35,41,318,26,5*4A,1774106089001
NMEA,$GNGSA,A,3,08,10,23,27,32,,,,,,,,0.9,0.5,0.7,1*36,1774106089025
NMEA,$PSSGR,GSA,A,3,08,10,23,27,32,,,,,,,,0.9,0.5,0.7,1,8*42,1774106089025
NMEA,$GNGSA,A,3,66,72,,,,,,,,,,,0.9,0.5,0.7,2*3C,1774106089025
NMEA,$GNGSA,A,3,02,04,06,09,10,36,,,,,,,0.9,0.5,0.7,3*35,1774106089025
NMEA,$PSSGR,GSA,A,3,302,304,306,309,310,336,,,,,,,0.9,0.5,0.7,3,1*48,1774106089025
NMEA,$GNGSA,A,3,05,13,19,20,29,30,35,60,,,,,0.9,0.5,0.7,4*3A,1774106089025
NMEA,$PSSGR,GSA,A,3,219,220,229,235,,,,,,,,,0.9,0.5,0.7,4,5*41,1774106089025
NMEA,$GNVTG,48.3,T,43.1,M,2.8,N,5.3,K,A*38,1774106089025
NMEA,$GNDTM,W84,,0000.000000,N,00000.000000,E,0.000,W84*41,1774106089025
NMEA,$GNRMC,151449.00,A,3210.113676,N,03448.796787,E,2.8,48.3,210326,5.2,E,A,V*64,1774106089025
NMEA,$GNGNS,151449.00,3210.113676,N,03448.796787,E,AAAANN,21,0.5,23.3,19.1,,,V*1C,1774106089025
NMEA,$GNGGA,151449.00,3210.113676,N,03448.796787,E,1,12,0.5,23.3,M,19.1,M,,*4C,1774106089025
NMEA,$PSMSG,magcal=PASS,bluesky=0*00,1774106089029
NMEA,$GPGSV,2,1,06,02,00,000,37,06,00,000,38,08,51,302,32,10,57,023,33,1*64,1774106090001
NMEA,$GPGSV,2,2,06,27,75,232,32,32,56,133,26,1*60,1774106090001
NMEA,$GPGSV,2,1,06,08,51,302,29,10,57,023,28,18,12,094,17,23,21,046,16,8*60,1774106090001
NMEA,$GPGSV,2,2,06,27,75,232,30,32,56,133,24,8*69,1774106090001
NMEA,$GLGSV,2,1,06,,00,000,33,66,54,188,31,,00,000,28,87,16,109,17,1*73,1774106090001
NMEA,$GLGSV,2,2,06,,00,000,31,72,14,028,20,1*74,1774106090001
NMEA,$GAGSV,2,1,08,02,28,279,32,04,40,073,23,06,48,109,24,09,42,146,22,7*70,1774106090001
NMEA,$GAGSV,2,2,08,10,32,072,19,11,52,045,21,25,26,219,26,36,46,318,32,7*72,1774106090001
NMEA,$GAGSV,2,1,08,02,28,279,31,04,40,073,19,06,48,109,21,09,42,146,22,1*79,1774106090001
NMEA,$GAGSV,2,2,08,10,32,072,19,11,52,045,21,25,26,219,25,36,46,318,28,1*7C,1774106090001
NMEA,$GQGSV,1,1,01,05,00,000,44,1*51,1774106090001
NMEA,$GBGSV,2,1,08,60,30,115,27,35,41,318,35,30,22,123,24,29,72,093,27,1*73,1774106090001
NMEA,$GBGSV,2,2,08,20,59,048,28,19,65,201,29,13,27,039,23,05,46,138,27,1*71,1774106090001
NMEA,$GBGSV,2,1,05,19,65,201,27,20,59,048,24,29,72,093,23,30,22,123,14,5*7E,1774106090001
NMEA,$GBGSV,2,2,05,35,41,318,30,5*4D,1774106090001
NMEA,$GNGSA,A,3,08,10,23,27,32,,,,,,,,0.9,0.5,0.7,1*36,1774106090012
NMEA,$PSSGR,GSA,A,3,08,10,27,32,,,,,,,,,0.9,0.5,0.7,1,8*43,1774106090012
NMEA,$GNGSA,A,3,66,72,,,,,,,,,,,0.9,0.5,0.7,2*3C,1774106090012
NMEA,$GNGSA,A,3,02,04,06,09,10,25,36,,,,,,0.9,0.5,0.7,3*32,1774106090012
NMEA,$PSSGR,GSA,A,3,302,304,306,309,310,325,336,,,,,,0.9,0.5,0.7,3,1*7C,1774106090012
NMEA,$GNGSA,A,3,05,13,19,20,29,30,35,60,,,,,0.9,0.5,0.7,4*3A,1774106090012
NMEA,$PSSGR,GSA,A,3,219,220,229,235,,,,,,,,,0.9,0.5,0.7,4,5*41,1774106090012
NMEA,$GNVTG,18.5,T,13.3,M,2.5,N,4.7,K,A*34,1774106090012
NMEA,$GNDTM,W84,,0000.000000,N,00000.000000,E,0.000,W84*41,1774106090012
NMEA,$GNRMC,151450.00,A,3210.114577,N,03448.797272,E,2.5,18.5,210326,5.2,E,A,V*69,1774106090012
NMEA,$GNGNS,151450.00,3210.114577,N,03448.797272,E,AAAANN,22,0.5,24.5,19.1,,,V*1D,1774106090012
NMEA,$GNGGA,151450.00,3210.114577,N,03448.797272,E,1,12,0.5,24.5,M,19.1,M,,*4E,1774106090012
NMEA,$PSMSG,magcal=PASS,bluesky=0*00,1774106090018
NMEA,$GPGSV,2,1,06,02,00,000,33,06,00,000,39,08,51,302,36,10,57,023,36,1*60,1774106090998
NMEA,$GPGSV,2,2,06,27,75,232,37,32,56,133,31,1*63,1774106090998
NMEA,$GPGSV,2,1,06,08,51,302,32,10,57,023,29,18,12,094,17,23,21,046,16,8*6B,1774106090998
NMEA,$GPGSV,2,2,06,27,75,232,29,32,56,133,22,8*67,1774106090998
NMEA,$GLGSV,2,1,06,,00,000,32,66,54,188,33,,00,000,30,87,16,109,17,1*79,1774106090998
NMEA,$GLGSV,2,2,06,,00,000,34,72,14,028,20,1*71,1774106090998
NMEA,$GAGSV,2,1,08,02,28,279,31,04,40,073,23,06,48,109,24,09,42,146,21,7*70,1774106090998
NMEA,$GAGSV,2,2,08,10,32,072,19,11,52,045,21,25,26,219,28,36,46,318,31,7*7F,1774106090998
NMEA,$GAGSV,2,1,08,02,28,279,33,04,40,073,19,06,48,109,21,09,42,146,22,1*7B,1774106090998
NMEA,$GAGSV,2,2,08,10,32,072,19,11,52,045,18,25,26,219,25,36,46,318,29,1*77,1774106090998
NMEA,$GQGSV,1,1,01,05,00,000,39,1*5B,1774106090998
NMEA,$GBGSV,2,1,08,60,30,115,27,35,41,318,36,30,22,123,24,29,72,093,27,1*70,1774106090998
NMEA,$GBGSV,2,2,08,20,59,048,28,19,65,201,34,13,27,039,23,05,46,138,27,1*7D,1774106090998
NMEA,$GBGSV,2,1,05,19,65,201,27,20,59,048,27,29,72,093,23,30,22,123,14,5*7D,1774106090998
NMEA,$GBGSV,2,2,05,35,41,318,27,5*4B,1774106090998
NMEA,$GNGSA,A,3,08,10,23,27,32,,,,,,,,0.9,0.5,0.7,1*36,1774106091010
NMEA,$PSSGR,GSA,A,3,08,10,27,32,,,,,,,,,0.9,0.5,0.7,1,8*43,1774106091010
NMEA,$GNGSA,A,3,66,72,,,,,,,,,,,0.9,0.5,0.7,2*3C,1774106091010
NMEA,$GNGSA,A,3,02,04,06,09,10,25,36,,,,,,0.9,0.5,0.7,3*32,1774106091010
NMEA,$PSSGR,GSA,A,3,302,304,306,309,310,325,336,,,,,,0.9,0.5,0.7,3,1*7C,1774106091010
NMEA,$GNGSA,A,3,05,13,19,20,29,30,35,60,,,,,0.9,0.5,0.7,4*3A,1774106091010
NMEA,$PSSGR,GSA,A,3,219,220,229,235,,,,,,,,,0.9,0.5,0.7,4,5*41,1774106091010
NMEA,$GNVTG,29.0,T,23.8,M,3.7,N,6.8,K,A*35,1774106091010
NMEA,$GNDTM,W84,,0000.000000,N,00000.000000,E,0.000,W84*41,1774106091010
NMEA,$GNRMC,151451.00,A,3210.115587,N,03448.797813,E,3.7,29.0,210326,5.2,E,A,V*6F,1774106091010
NMEA,$GNGNS,151451.00,3210.115587,N,03448.797813,E,AAAANN,22,0.5,24.6,19.1,,,V*1C,1774106091010
NMEA,$GNGGA,151451.00,3210.115587,N,03448.797813,E,1,12,0.5,24.6,M,19.1,M,,*4F,1774106091010
NMEA,$PSMSG,magcal=PASS,bluesky=0*00,1774106091017
NMEA,$GPGSV,2,1,06,02,00,000,36,06,00,000,40,08,51,302,34,10,57,023,32,1*6D,1774106092002
NMEA,$GPGSV,2,2,06,27,75,232,35,32,56,133,29,1*68,1774106092002
NMEA,$GPGSV,2,1,06,08,51,302,31,10,57,023,25,18,12,094,17,23,21,046,16,8*64,1774106092002
NMEA,$GPGSV,2,2,06,27,75,232,31,32,56,133,22,8*6E,1774106092002
NMEA,$GLGSV,2,1,07,,00,000,32,66,54,188,35,79,06,281,18,,00,000,31,1*73,1774106092002
NMEA,$GLGSV,2,2,07,87,16,109,17,,00,000,34,72,14,028,20,1*46,1774106092002
NMEA,$GAGSV,2,1,08,02,28,279,29,04,40,073,23,06,48,109,22,09,42,146,24,7*7A,1774106092002
NMEA,$GAGSV,2,2,08,10,32,072,19,11,52,045,26,25,26,219,25,36,46,318,30,7*74,1774106092002
NMEA,$GAGSV,2,1,08,02,28,279,30,04,40,073,19,06,48,109,23,09,42,146,21,1*79,1774106092002
NMEA,$GAGSV,2,2,08,10,32,072,19,11,52,045,24,25,26,219,24,36,46,318,25,1*75,1774106092002
NMEA,$GQGSV,1,1,01,05,00,000,39,1*5B,1774106092002
NMEA,$GBGSV,2,1,08,60,30,115,27,35,41,318,32,30,22,123,24,29,72,093,27,1*74,1774106092002
NMEA,$GBGSV,2,2,08,20,59,048,32,19,65,201,36,13,27,039,23,05,46,138,27,1*74,1774106092002
NMEA,$GBGSV,2,1,05,19,65,201,28,20,59,048,29,29,72,093,24,30,22,123,14,5*7B,1774106092002
NMEA,$GBGSV,2,2,05,35,41,318,25,5*49,1774106092002
NMEA,$GNGSA,A,3,08,10,23,27,32,,,,,,,,0.8,0.5,0.7,1*37,1774106092011
NMEA,$PSSGR,GSA,A,3,08,10,27,32,,,,,,,,,0.8,0.5,0.7,1,8*42,1774106092011
NMEA,$GNGSA,A,3,66,72,79,,,,,,,,,,0.8,0.5,0.7,2*33,1774106092011
NMEA,$GNGSA,A,3,02,04,06,09,10,25,36,,,,,,0.8,0.5,0.7,3*33,1774106092011
NMEA,$PSSGR,GSA,A,3,302,304,306,309,310,325,336,,,,,,0.8,0.5,0.7,3,1*7D,1774106092011
NMEA,$GNGSA,A,3,05,13,19,20,29,30,35,60,,,,,0.8,0.5,0.7,4*3B,1774106092011
NMEA,$PSSGR,GSA,A,3,219,220,229,235,,,,,,,,,0.8,0.5,0.7,4,5*40,1774106092011
NMEA,$GNVTG,11.9,T,6.7,M,3.2,N,5.9,K,A*08,1774106092011
NMEA,$GNDTM,W84,,0000.000000,N,00000.000000,E,0.000,W84*41,1774106092011
NMEA,$GNRMC,151452.00,A,3210.116588,N,03448.797897,E,3.2,11.9,210326,5.2,E,A,V*6B,1774106092011
NMEA,$GNGNS,151452.00,3210.116588,N,03448.797897,E,AAAANN,23,0.5,25.0,19.1,,,V*19,1774106092011
NMEA,$GNGGA,151452.00,3210.116588,N,03448.797897,E,1,12,0.5,25.0,M,19.1,M,,*4B,1774106092011
NMEA,$PSMSG,magcal=PASS,bluesky=0*00,1774106092016
NMEA,$GPGSV,2,1,06,02,00,000,36,06,00,000,37,08,51,302,33,10,57,023,33,1*6B,1774106093004
NMEA,$GPGSV,2,2,06,27,75,232,31,32,56,133,29,1*6C,1774106093004
NMEA,$GPGSV,2,1,06,08,51,302,33,10,57,023,28,18,12,094,17,23,21,046,16,8*6B,1774106093004
NMEA,$GPGSV,2,2,06,27,75,232,29,32,56,133,22,8*67,1774106093004
NMEA,$GLGSV,2,1,07,,00,000,28,66,54,188,34,79,06,281,18,,00,000,31,1*79,1774106093004
NMEA,$GLGSV,2,2,07,87,16,109,17,,00,000,38,72,14,028,20,1*4A,1774106093004
NMEA,$GAGSV,2,1,08,02,28,279,33,04,40,073,17,06,48,109,23,09,42,146,21,7*72,1774106093004
NMEA,$GAGSV,2,2,08,10,32,072,19,11,52,045,27,25,26,219,26,36,46,318,35,7*73,1774106093004
NMEA,$GAGSV,2,1,08,02,28,279,34,04,40,073,19,06,48,109,21,09,42,146,21,1*7F,1774106093004
NMEA,$GAGSV,2,2,08,10,32,072,19,11,52,045,24,25,26,219,24,36,46,318,25,1*75,1774106093004
NMEA,$GQGSV,1,1,01,05,00,000,37,1*55,1774106093004
NMEA,$GBGSV,2,1,08,60,30,115,27,35,41,318,39,30,22,123,24,29,72,093,29,1*71,1774106093004
NMEA,$GBGSV,2,2,08,20,59,048,28,19,65,201,34,13,27,039,23,05,46,138,27,1*7D,1774106093004
NMEA,$GBGSV,2,1,05,19,65,201,26,20,59,048,26,29,72,093,24,30,22,123,14,5*7A,1774106093004
NMEA,$GBGSV,2,2,05,35,41,318,28,5*44,1774106093004
NMEA,$GNGSA,A,3,08,10,27,32,,,,,,,,,0.9,0.5,0.7,1*37,1774106093013
NMEA,$PSSGR,GSA,A,3,08,10,27,32,,,,,,,,,0.9,0.5,0.7,1,8*43,1774106093013
NMEA,$GNGSA,A,3,66,72,79,,,,,,,,,,0.9,0.5,0.7,2*32,1774106093013
NMEA,$GNGSA,A,3,02,04,06,09,10,25,36,,,,,,0.9,0.5,0.7,3*32,1774106093013
NMEA,$PSSGR,GSA,A,3,302,304,306,309,325,336,,,,,,,0.9,0.5,0.7,3,1*4E,1774106093013
NMEA,$GNGSA,A,3,05,13,19,20,29,30,35,60,,,,,0.9,0.5,0.7,4*3A,1774106093013
NMEA,$PSSGR,GSA,A,3,219,220,229,235,,,,,,,,,0.9,0.5,0.7,4,5*41,1774106093013
NMEA,$GNVTG,6.3,T,1.1,M,2.4,N,4.4,K,A*3E,1774106093013
NMEA,$GNDTM,W84,,0000.000000,N,00000.000000,E,0.000,W84*41,1774106093013
NMEA,$GNRMC,151453.00,A,3210.117336,N,03448.797751,E,2.4,6.3,210326,5.2,E,A,V*56,1774106093013
NMEA,$GNGNS,151453.00,3210.117336,N,03448.797751,E,AAAANN,22,0.5,25.0,19.1,,,V*1E,1774106093013
NMEA,$GNGGA,151453.00,3210.117336,N,03448.797751,E,1,12,0.5,25.0,M,19.1,M,,*4D,1774106093013
NMEA,$PSMSG,magcal=PASS,bluesky=0*00,1774106093023
NMEA,$GPGSV,2,1,07,02,00,000,37,06,00,000,36,08,51,302,40,10,57,023,33,1*6E,1774106094005
NMEA,$GPGSV,2,2,07,23,21,046,19,27,75,232,38,32,56,133,29,1*5C,1774106094005
NMEA,$GPGSV,2,1,06,08,51,302,34,10,57,023,30,18,12,094,17,23,21,046,17,8*64,1774106094005
NMEA,$GPGSV,2,2,06,27,75,232,26,32,56,133,22,8*68,1774106094005
NMEA,$GLGSV,2,1,07,,00,000,27,66,54,188,32,79,06,281,18,,00,000,29,1*79,1774106094005
NMEA,$GLGSV,2,2,07,87,16,109,17,,00,000,38,72,14,028,20,1*4A,1774106094005
NMEA,$GAGSV,2,1,08,02,28,279,33,04,40,073,21,06,48,109,23,09,42,146,21,7*77,1774106094005
NMEA,$GAGSV,2,2,08,10,32,072,19,11,52,045,27,25,26,219,26,36,46,318,38,7*7E,1774106094005
NMEA,$GAGSV,2,1,08,02,28,279,29,04,40,073,19,06,48,109,21,09,42,146,20,1*72,1774106094005
NMEA,$GAGSV,2,2,08,10,32,072,19,11,52,045,21,25,26,219,25,36,46,318,25,1*71,1774106094005
NMEA,$GQGSV,1,1,01,05,00,000,34,1*56,1774106094005
NMEA,$GBGSV,2,1,08,60,30,115,27,35,41,318,42,30,22,123,24,29,72,093,31,1*74,1774106094005
NMEA,$GBGSV,2,2,08,20,59,048,31,19,65,201,32,13,27,039,23,05,46,138,27,1*73,1774106094005
NMEA,$GBGSV,2,1,05,19,65,201,22,20,59,048,26,29,72,093,22,30,22,123,14,5*78,1774106094005
NMEA,$GBGSV,2,2,05,35,41,318,30,5*4D,1774106094005
NMEA,$GNGSA,A,3,08,10,27,32,,,,,,,,,1.0,0.6,0.8,1*33,1774106094037
NMEA,$PSSGR,GSA,A,3,08,10,27,32,,,,,,,,,1.0,0.6,0.8,1,8*47,1774106094037
NMEA,$GNGSA,A,3,66,79,,,,,,,,,,,1.0,0.6,0.8,2*33,1774106094037
NMEA,$GNGSA,A,3,02,04,06,09,25,36,,,,,,,1.0,0.6,0.8,3*37,1774106094037
NMEA,$PSSGR,GSA,A,3,302,304,306,309,325,336,,,,,,,1.0,0.6,0.8,3,1*4A,1774106094037
NMEA,$GNGSA,A,3,19,20,29,35,,,,,,,,,1.0,0.6,0.8,4*3C,1774106094037
NMEA,$PSSGR,GSA,A,3,219,220,229,235,,,,,,,,,1.0,0.6,0.8,4,5*45,1774106094037
NMEA,$GNVTG,3.5,T,358.3,M,2.9,N,5.4,K,A*3C,1774106094037
NMEA,$GNDTM,W84,,0000.000000,N,00000.000000,E,0.000,W84*41,1774106094037
NMEA,$GNRMC,151454.00,A,3210.118177,N,03448.797583,E,2.9,3.5,210326,5.2,E,A,V*5A,1774106094037
NMEA,$GNGNS,151454.00,3210.118177,N,03448.797583,E,AAAANN,16,0.6,25.2,19.1,,,V*1A,1774106094037
NMEA,$GNGGA,151454.00,3210.118177,N,03448.797583,E,1,12,0.6,25.2,M,19.1,M,,*4E,1774106094037
NMEA,$PSMSG,magcal=PASS,bluesky=0*00,1774106094059
NMEA,$GPGSV,2,1,08,02,00,000,38,06,00,000,35,08,51,302,40,10,57,023,33,1*6D,1774106095002
NMEA,$GPGSV,2,2,08,23,21,046,21,27,75,232,37,32,56,133,29,49,00,000,40,1*6E,1774106095002
NMEA,$GPGSV,2,1,06,08,51,302,35,10,57,023,26,18,12,094,17,23,21,046,17,8*62,1774106095002
NMEA,$GPGSV,2,2,06,27,75,232,25,32,56,133,22,8*6B,1774106095002
NMEA,$GLGSV,2,1,07,,00,000,31,66,54,188,34,79,06,281,18,,00,000,29,1*78,1774106095002
NMEA,$GLGSV,2,2,07,87,16,109,15,,00,000,36,72,14,028,20,1*46,1774106095002
NMEA,$GAGSV,2,1,08,02,28,279,35,04,40,073,21,06,48,109,21,09,42,146,23,7*71,1774106095002
NMEA,$GAGSV,2,2,08,10,32,072,19,11,52,045,23,25,26,219,32,36,46,318,37,7*70,1774106095002
NMEA,$GAGSV,2,1,08,02,28,279,30,04,40,073,19,06,48,109,19,09,42,146,20,1*71,1774106095002
NMEA,$GAGSV,2,2,08,10,32,072,19,11,52,045,22,25,26,219,30,36,46,318,27,1*74,1774106095002
NMEA,$GQGSV,1,1,01,05,00,000,35,1*57,1774106095002
NMEA,$GBGSV,2,1,08,60,30,115,27,35,41,318,39,30,22,123,24,29,72,093,31,1*78,1774106095002
NMEA,$GBGSV,2,2,08,20,59,048,30,19,65,201,39,13,27,039,23,05,46,138,27,1*79,1774106095002
NMEA,$GBGSV,2,1,05,19,65,201,25,20,59,048,23,29,72,093,23,30,22,123,14,5*7B,1774106095002
NMEA,$GBGSV,2,2,05,35,41,318,27,5*4B,1774106095002
NMEA,$GNGSA,A,3,08,10,27,32,,,,,,,,,1.1,0.6,0.8,1*32,1774106095019
NMEA,$PSSGR,GSA,A,3,08,10,27,32,,,,,,,,,1.1,0.6,0.8,1,8*46,1774106095019
NMEA,$GNGSA,A,3,66,79,,,,,,,,,,,1.1,0.6,0.8,2*32,1774106095019
NMEA,$GNGSA,A,3,02,04,06,09,25,36,,,,,,,1.1,0.6,0.8,3*36,1774106095019
NMEA,$PSSGR,GSA,A,3,302,306,309,325,336,,,,,,,,1.1,0.6,0.8,3,1*7C,1774106095019
NMEA,$GNGSA,A,3,19,20,29,35,,,,,,,,,1.1,0.6,0.8,4*3D,1774106095019
NMEA,$PSSGR,GSA,A,3,219,220,229,235,,,,,,,,,1.1,0.6,0.8,4,5*44,1774106095019
NMEA,$GNVTG,350.3,T,345.1,M,3.2,N,5.9,K,A*36,1774106095019
NMEA,$GNDTM,W84,,0000.000000,N,00000.000000,E,0.000,W84*41,1774106095019
NMEA,$GNRMC,151455.00,A,3210.119220,N,03448.797195,E,3.2,350.3,210326,5.2,E,A,V*51,1774106095019
NMEA,$GNGNS,151455.00,3210.119220,N,03448.797195,E,AAAANN,16,0.6,25.4,19.1,,,V*1E,1774106095019
NMEA,$GNGGA,151455.00,3210.119220,N,03448.797195,E,1,12,0.6,25.4,M,19.1,M,,*4A,1774106095019
NMEA,$PSMSG,magcal=PASS,bluesky=0*00,1774106095027
NMEA,$GPGSV,3,1,09,02,00,000,32,06,00,000,36,08,51,302,35,10,57,023,36,1*63,1774106095999
NMEA,$GPGSV,3,2,09,23,21,046,21,27,75,232,40,32,56,133,29,36,00,000,39,1*68,1774106095999
NMEA,$GPGSV,3,3,09,49,00,000,40,1*54,1774106095999
NMEA,$GPGSV,2,1,06,08,51,302,30,10,57,023,31,18,12,094,17,23,21,046,17,8*61,1774106095999
NMEA,$GPGSV,2,2,06,27,75,232,34,32,56,133,23,8*6A,1774106095999
NMEA,$GLGSV,2,1,07,,00,000,30,66,54,188,35,79,06,281,18,,00,000,33,1*73,1774106095999
NMEA,$GLGSV,2,2,07,87,16,109,15,,00,000,29,72,14,028,20,1*48,1774106095999
NMEA,$GAGSV,2,1,08,02,28,279,34,04,40,073,20,06,48,109,24,09,42,146,25,7*72,1774106095999
NMEA,$GAGSV,2,2,08,10,32,072,17,11,52,045,23,25,26,219,34,36,46,318,34,7*7B,1774106095999
NMEA,$GAGSV,2,1,08,02,28,279,25,04,40,073,16,06,48,109,24,09,42,146,19,1*7E,1774106095999
NMEA,$GAGSV,2,2,08,10,32,072,14,11,52,045,20,25,26,219,27,36,46,318,28,1*72,1774106095999
NMEA,$GQGSV,1,1,01,05,00,000,35,1*57,1774106095999
NMEA,$GBGSV,2,1,08,60,30,115,27,35,41,318,36,30,22,123,24,29,72,093,32,1*74,1774106095999
NMEA,$GBGSV,2,2,08,20,59,048,33,19,65,201,37,13,27,039,23,05,46,138,27,1*74,1774106095999
NMEA,$GBGSV,2,1,05,19,65,201,30,20,59,048,25,29,72,093,23,30,22,123,14,5*79,1774106095999
NMEA,$GBGSV,2,2,05,35,41,318,29,5*45,1774106095999
NMEA,$GNGSA,A,3,02,08,10,27,32,,,,,,,,1.0,0.6,0.8,1*31,1774106096009
NMEA,$PSSGR,GSA,A,3,08,10,27,32,,,,,,,,,1.0,0.6,0.8,1,8*47,1774106096009
NMEA,$GNGSA,A,3,66,79,,,,,,,,,,,1.0,0.6,0.8,2*33,1774106096009
NMEA,$GNGSA,A,3,02,04,06,09,25,36,,,,,,,1.0,0.6,0.8,3*37,1774106096009
NMEA,$PSSGR,GSA,A,3,302,306,309,325,336,,,,,,,,1.0,0.6,0.8,3,1*7D,1774106096009
NMEA,$GNGSA,A,3,19,20,29,35,,,,,,,,,1.0,0.6,0.8,4*3C,1774106096009
NMEA,$PSSGR,GSA,A,3,219,220,229,235,,,,,,,,,1.0,0.6,0.8,4,5*45,1774106096009
NMEA,$GNVTG,350.1,T,344.9,M,3.1,N,5.8,K,A*3F,1774106096009
NMEA,$GNDTM,W84,,0000.000000,N,00000.000000,E,0.000,W84*41,1774106096009
NMEA,$GNRMC,151456.00,A,3210.120178,N,03448.796910,E,3.1,350.1,210326,5.2,E,A,V*53,1774106096009
NMEA,$GNGNS,151456.00,3210.120178,N,03448.796910,E,AAAANN,17,0.6,24.6,19.1,,,V*1F,1774106096009
NMEA,$GNGGA,151456.00,3210.120178,N,03448.796910,E,1,12,0.6,24.6,M,19.1,M,,*4A,1774106096009
NMEA,$PSMSG,magcal=PASS,bluesky=0*00,1774106096015
NMEA,$GPGSV,2,1,08,02,27,307,35,08,51,302,35,10,57,023,36,23,21,046,23,1*67,1774106097004
NMEA,$GPGSV,2,2,08,27,75,232,37,32,56,133,37,36,00,000,36,49,00,000,37,1*62,1774106097004
NMEA,$GPGSV,2,1,06,08,51,302,33,10,57,023,30,18,11,095,17,23,21,046,17,8*61,1774106097004
NMEA,$GPGSV,2,2,06,27,75,232,29,32,56,133,24,8*61,1774106097004
NMEA,$GLGSV,2,1,07,,00,000,30,66,54,188,38,79,06,281,18,,00,000,37,1*7A,1774106097004
NMEA,$GLGSV,2,2,07,87,16,109,15,,00,000,30,72,14,028,20,1*40,1774106097004
NMEA,$GAGSV,2,1,08,02,28,279,29,04,40,073,29,06,48,109,25,09,42,146,26,7*75,1774106097004
NMEA,$GAGSV,2,2,08,10,32,072,22,11,52,045,27,25,26,219,30,36,46,318,31,7*78,1774106097004
NMEA,$GAGSV,2,1,08,02,28,279,26,04,40,073,16,06,48,109,23,09,42,146,21,1*71,1774106097004
NMEA,$GAGSV,2,2,08,10,32,072,14,11,52,045,22,25,26,219,29,36,46,318,26,1*70,1774106097004
NMEA,$GQGSV,1,1,01,05,00,000,37,1*55,1774106097004
NMEA,$GBGSV,2,1,08,60,30,115,27,35,41,318,36,30,22,123,24,29,72,093,32,1*74,1774106097004
NMEA,$GBGSV,2,2,08,20,59,048,37,19,65,201,39,13,27,039,19,05,46,138,27,1*77,1774106097004
NMEA,$GBGSV,2,1,05,19,65,201,28,20,59,048,24,29,72,093,22,30,22,123,14,5*70,1774106097004
NMEA,$GBGSV,2,2,05,35,41,318,27,5*4B,1774106097004
NMEA,$GNGSA,A,3,02,08,10,23,27,32,,,,,,,0.9,0.6,0.7,1*37,1774106097014
NMEA,$PSSGR,GSA,A,3,08,10,27,32,,,,,,,,,0.9,0.6,0.7,1,8*40,1774106097014
NMEA,$GNGSA,A,3,66,79,,,,,,,,,,,0.9,0.6,0.7,2*34,1774106097014
NMEA,$GNGSA,A,3,02,04,06,09,10,25,36,,,,,,0.9,0.6,0.7,3*31,1774106097014
NMEA,$PSSGR,GSA,A,3,302,306,309,325,336,,,,,,,,0.9,0.6,0.7,3,1*7A,1774106097014
NMEA,$GNGSA,A,3,13,19,20,29,35,,,,,,,,0.9,0.6,0.7,4*39,1774106097014
NMEA,$PSSGR,GSA,A,3,219,220,229,235,,,,,,,,,0.9,0.6,0.7,4,5*42,1774106097014
NMEA,$GNVTG,353.2,T,348.0,M,3.4,N,6.2,K,A*36,1774106097014
NMEA,$GNDTM,W84,,0000.000000,N,00000.000000,E,0.000,W84*41,1774106097014
NMEA,$GNRMC,151457.00,A,3210.121140,N,03448.796652,E,3.4,353.2,210326,5.2,E,A,V*54,1774106097014
NMEA,$GNGNS,151457.00,3210.121140,N,03448.796652,E,AAAANN,20,0.6,24.5,19.1,,,V*1A,1774106097014
NMEA,$GNGGA,151457.00,3210.121140,N,03448.796652,E,1,12,0.6,24.5,M,19.1,M,,*4B,1774106097014
NMEA,$PSMSG,magcal=PASS,bluesky=0*00,1774106097020
NMEA,$GPGSV,3,1,09,02,27,307,31,08,51,302,34,10,57,023,33,16,18,213,25,1*6F,1774106097999
NMEA,$GPGSV,3,2,09,23,21,046,25,27,75,232,39,32,56,133,36,36,00,000,39,1*6C,1774106097999
NMEA,$GPGSV,3,3,09,49,00,000,35,1*56,1774106097999
NMEA,$GPGSV,2,1,06,08,51,302,30,10,57,023,27,18,11,095,17,23,21,046,19,8*6A,1774106097999
NMEA,$GPGSV,2,2,06,27,75,232,28,32,56,133,25,8*61,1774106097999
NMEA,$GLGSV,2,1,07,,00,000,33,66,54,188,38,79,06,281,17,,00,000,31,1*70,1774106097999
NMEA,$GLGSV,2,2,07,87,16,109,15,,00,000,28,72,14,028,20,1*49,1774106097999
NMEA,$GAGSV,2,1,08,02,28,279,32,04,40,073,25,06,48,109,25,09,42,146,30,7*74,1774106097999
NMEA,$GAGSV,2,2,08,10,32,072,22,11,52,045,24,25,26,219,28,36,46,318,35,7*76,1774106097999
NMEA,$GAGSV,2,1,08,02,28,279,29,04,40,073,21,06,48,109,23,09,42,146,24,1*7F,1774106097999
NMEA,$GAGSV,2,2,08,10,32,072,18,11,52,045,23,25,26,219,23,36,46,318,27,1*76,1774106097999
NMEA,$GQGSV,1,1,01,05,00,000,38,1*5A,1774106097999
NMEA,$GBGSV,2,1,08,60,30,115,27,35,41,318,32,30,22,123,24,29,72,093,32,1*70,1774106097999
NMEA,$GBGSV,2,2,08,20,59,048,30,19,65,201,39,13,27,039,25,05,46,138,27,1*7F,1774106097999
NMEA,$GBGSV,2,1,05,19,65,201,32,20,59,048,29,29,72,093,25,30,22,123,14,5*71,1774106097999
NMEA,$GBGSV,2,2,05,35,41,318,22,5*4E,1774106097999
NMEA,$GNGSA,A,3,02,08,10,16,23,27,32,,,,,,0.9,0.5,0.7,1*33,1774106098011
NMEA,$PSSGR,GSA,A,3,08,10,27,32,,,,,,,,,0.9,0.5,0.7,1,8*43,1774106098011
NMEA,$GNGSA,A,3,66,79,,,,,,,,,,,0.9,0.5,0.7,2*37,1774106098011
NMEA,$GNGSA,A,3,02,04,06,09,10,25,36,,,,,,0.9,0.5,0.7,3*32,1774106098011
NMEA,$PSSGR,GSA,A,3,302,304,306,309,310,325,336,,,,,,0.9,0.5,0.7,3,1*7C,1774106098011
NMEA,$GNGSA,A,3,13,19,20,29,35,,,,,,,,0.9,0.5,0.7,4*3A,1774106098011
NMEA,$PSSGR,GSA,A,3,219,220,229,235,,,,,,,,,0.9,0.5,0.7,4,5*41,1774106098011
NMEA,$GNVTG,356.9,T,351.7,M,3.2,N,6.0,K,A*33,1774106098011
NMEA,$GNDTM,W84,,0000.000000,N,00000.000000,E,0.000,W84*41,1774106098011
NMEA,$GNRMC,151458.00,A,3210.122013,N,03448.796465,E,3.2,356.9,210326,5.2,E,A,V*51,1774106098011
NMEA,$GNGNS,151458.00,3210.122013,N,03448.796465,E,AAAANN,21,0.5,25.3,19.1,,,V*12,1774106098011
NMEA,$GNGGA,151458.00,3210.122013,N,03448.796465,E,1,12,0.5,25.3,M,19.1,M,,*42,1774106098011
NMEA,$PSMSG,magcal=PASS,bluesky=0*00,1774106098016
NMEA,$GPGSV,3,1,09,02,27,307,29,08,51,302,31,10,57,023,30,16,18,213,23,1*66,1774106098998
NMEA,$GPGSV,3,2,09,23,21,046,29,27,75,232,38,32,56,133,32,36,00,000,38,1*64,1774106098998
NMEA,$GPGSV,3,3,09,49,00,000,34,1*57,1774106098998
NMEA,$GPGSV,2,1,05,08,51,302,25,10,57,023,24,23,21,046,28,27,75,232,30,8*68,1774106098998
NMEA,$GPGSV,2,2,05,32,56,133,26,8*5F,1774106098998
NMEA,$GLGSV,2,1,07,,00,000,30,66,54,188,37,79,06,281,17,,00,000,31,1*7C,1774106098998
NMEA,$GLGSV,2,2,07,87,16,109,15,,00,000,31,72,14,028,20,1*41,1774106098998
NMEA,$GAGSV,2,1,08,02,28,279,29,04,40,073,24,06,48,109,23,09,42,146,23,7*7B,1774106098998
NMEA,$GAGSV,2,2,08,10,32,072,23,11,52,045,27,25,26,219,29,36,46,318,27,7*76,1774106098998
NMEA,$GAGSV,2,1,08,02,28,279,27,04,40,073,21,06,48,109,20,09,42,146,21,1*77,1774106098998
NMEA,$GAGSV,2,2,08,10,32,072,18,11,52,045,25,25,26,219,25,36,46,318,21,1*70,1774106098998
NMEA,$GQGSV,1,1,01,05,00,000,37,1*55,1774106098998
NMEA,$GBGSV,2,1,08,60,30,115,27,35,41,318,28,30,22,123,24,29,72,093,29,1*71,1774106098998
NMEA,$GBGSV,2,2,08,20,59,048,32,19,65,201,40,13,27,039,25,05,46,138,27,1*73,1774106098998
NMEA,$GBGSV,2,1,05,19,65,201,31,20,59,048,26,29,72,093,21,30,22,123,14,5*79,1774106098998
NMEA,$GBGSV,2,2,05,35,41,318,22,5*4E,1774106098998
NMEA,$GNGSA,A,3,02,08,10,16,23,27,32,,,,,,0.8,0.5,0.7,1*32,1774106099008
NMEA,$PSSGR,GSA,A,3,08,10,23,27,32,,,,,,,,0.8,0.5,0.7,1,8*43,1774106099008
NMEA,$GNGSA,A,3,66,79,,,,,,,,,,,0.8,0.5,0.7,2*36,1774106099008
NMEA,$GNGSA,A,3,02,04,06,09,10,25,36,,,,,,0.8,0.5,0.7,3*33,1774106099008
NMEA,$PSSGR,GSA,A,3,302,304,306,309,310,325,336,,,,,,0.8,0.5,0.7,3,1*7D,1774106099008
NMEA,$GNGSA,A,3,13,19,20,29,35,,,,,,,,0.8,0.5,0.7,4*3B,1774106099008
NMEA,$PSSGR,GSA,A,3,219,220,229,235,,,,,,,,,0.8,0.5,0.7,4,5*40,1774106099008
NMEA,$GNVTG,355.3,T,350.1,M,3.1,N,5.8,K,A*35,1774106099008
NMEA,$GNDTM,W84,,0000.000000,N,00000.000000,E,0.000,W84*41,1774106099008
NMEA,$GNRMC,151459.00,A,3210.122835,N,03448.796432,E,3.1,355.3,210326,5.2,E,A,V*54,1774106099008
NMEA,$GNGNS,151459.00,3210.122835,N,03448.796432,E,AAAANN,21,0.5,24.6,19.1,,,V*19,1774106099008
NMEA,$GNGGA,151459.00,3210.122835,N,03448.796432,E,1,12,0.5,24.6,M,19.1,M,,*49,1774106099008
NMEA,$PSMSG,magcal=PASS,bluesky=0*00,1774106099015
NMEA,$GPGSV,3,1,09,02,27,307,28,08,51,302,30,10,57,023,31,16,18,213,24,1*60,1774106100000
NMEA,$GPGSV,3,2,09,23,21,046,33,27,75,232,38,32,56,133,33,36,00,000,39,1*6F,1774106100000
NMEA,$GPGSV,3,3,09,49,00,000,33,1*50,1774106100000
NMEA,$GPGSV,2,1,05,08,51,302,28,10,57,023,27,23,21,046,25,27,75,232,32,8*69,1774106100000
NMEA,$GPGSV,2,2,05,32,56,133,25,8*5C,1774106100000
NMEA,$GLGSV,2,1,07,,00,000,32,66,54,188,37,79,06,281,23,,00,000,32,1*7A,1774106100000
NMEA,$GLGSV,2,2,07,87,16,109,15,,00,000,25,72,14,028,12,1*45,1774106100000
NMEA,$GAGSV,3,1,09,02,28,279,31,04,40,073,26,06,48,109,26,09,42,146,24,7*72,1774106100000
NMEA,$GAGSV,3,2,09,10,32,072,22,11,52,045,30,25,26,219,30,34,05,286,21,7*7C,1774106100000
NMEA,$GAGSV,3,3,09,36,46,318,25,7*40,1774106100000
NMEA,$GAGSV,3,1,09,02,28,279,30,04,40,073,23,06,48,109,23,09,42,146,21,1*70,1774106100000
NMEA,$GAGSV,3,2,09,10,32,072,21,11,52,045,23,25,26,219,27,34,05,286,16,1*79,1774106100000
NMEA,$GAGSV,3,3,09,36,46,318,23,1*40,1774106100000
NMEA,$GQGSV,1,1,01,05,00,000,37,1*55,1774106100000
NMEA,$GBGSV,2,1,07,60,30,115,27,35,41,318,31,29,72,093,30,20,59,048,34,1*7E,1774106100000
NMEA,$GBGSV,2,2,07,19,65,201,40,13,27,039,28,05,46,138,27,1*42,1774106100000
NMEA,$GBGSV,2,1,05,19,65,201,31,20,59,048,26,29,72,093,23,30,22,123,14,5*7B,1774106100000
NMEA,$GBGSV,2,2,05,35,41,318,25,5*49,1774106100000
NMEA,$GNGSA,A,3,02,08,10,16,23,27,32,,,,,,0.8,0.5,0.6,1*33,1774106100009
NMEA,$PSSGR,GSA,A,3,08,10,23,27,32,,,,,,,,0.8,0.5,0.6,1,8*42,1774106100009
NMEA,$GNGSA,A,3,66,72,79,,,,,,,,,,0.8,0.5,0.6,2*32,1774106100009
NMEA,$GNGSA,A,3,02,04,06,09,10,25,34,36,,,,,0.8,0.5,0.6,3*35,1774106100009
NMEA,$PSSGR,GSA,A,3,302,304,306,309,310,325,336,,,,,,0.8,0.5,0.6,3,1*7C,1774106100009
NMEA,$GNGSA,A,3,13,19,20,29,35,,,,,,,,0.8,0.5,0.6,4*3A,1774106100009
NMEA,$PSSGR,GSA,A,3,219,220,229,235,,,,,,,,,0.8,0.5,0.6,4,5*41,1774106100009
NMEA,$GNVTG,356.8,T,351.6,M,3.1,N,5.8,K,A*3B,1774106100009
NMEA,$GNDTM,W84,,0000.000000,N,00000.000000,E,0.000,W84*41,1774106100009
NMEA,$GNRMC,151500.00,A,3210.123624,N,03448.796463,E,3.1,356.8,210326,5.2,E,A,V*5A,1774106100009
NMEA,$GNGNS,151500.00,3210.123624,N,03448.796463,E,AAAANN,23,0.5,24.2,19.1,,,V*19,1774106100009
NMEA,$GNGGA,151500.00,3210.123624,N,03448.796463,E,1,12,0.5,24.2,M,19.1,M,,*4B,1774106100009
NMEA,$PSMSG,magcal=PASS,bluesky=0*00,1774106100014
NMEA,$GPGSV,3,1,09,02,27,307,28,08,51,302,31,10,57,023,35,16,18,213,24,1*65,1774106100999
NMEA,$GPGSV,3,2,09,23,21,046,24,27,75,232,35,32,56,133,37,36,00,000,34,1*6D,1774106100999
NMEA,$GPGSV,3,3,09,49,00,000,38,1*5B,1774106100999
NMEA,$GPGSV,2,1,05,08,51,302,27,10,57,023,26,23,21,046,21,27,75,232,28,8*68,1774106100999
NMEA,$GPGSV,2,2,05,32,56,133,24,8*5D,1774106100999
NMEA,$GLGSV,2,1,07,,00,000,31,66,54,188,32,79,06,281,25,,00,000,29,1*70,1774106100999
NMEA,$GLGSV,2,2,07,87,16,109,15,,00,000,30,72,14,028,12,1*41,1774106100999
NMEA,$GAGSV,3,1,09,02,28,279,28,04,40,073,29,06,48,109,27,09,42,146,26,7*76,1774106100999
NMEA,$GAGSV,3,2,09,10,32,072,29,11,52,045,27,25,26,219,29,34,05,286,21,7*79,1774106100999
NMEA,$GAGSV,3,3,09,36,46,318,21,7*44,1774106100999
NMEA,$GAGSV,3,1,09,02,28,279,29,04,40,073,25,06,48,109,25,09,42,146,23,1*7A,1774106100999
NMEA,$GAGSV,3,2,09,10,32,072,23,11,52,045,23,25,26,219,26,34,05,286,16,1*7A,1774106100999
NMEA,$GAGSV,3,3,09,36,46,318,22,1*41,1774106100999
NMEA,$GQGSV,1,1,01,05,00,000,40,1*55,1774106100999
NMEA,$GBGSV,2,1,07,60,30,115,27,35,41,318,29,29,72,093,29,20,59,048,33,1*78,1774106100999
NMEA,$GBGSV,2,2,07,19,65,201,37,13,27,039,29,05,46,138,27,1*43,1774106100999
NMEA,$GBGSV,2,1,05,19,65,201,24,20,59,048,27,29,72,093,24,30,22,123,14,5*79,1774106100999
NMEA,$GBGSV,2,2,05,35,41,318,23,5*4F,1774106100999
NMEA,$GNGSA,A,3,02,08,10,16,23,27,32,,,,,,0.8,0.5,0.6,1*33,1774106101009
NMEA,$PSSGR,GSA,A,3,08,10,23,27,32,,,,,,,,0.8,0.5,0.6,1,8*42,1774106101009
NMEA,$GNGSA,A,3,66,72,79,,,,,,,,,,0.8,0.5,0.6,2*32,1774106101009
NMEA,$GNGSA,A,3,02,04,06,09,10,25,34,36,,,,,0.8,0.5,0.6,3*35,1774106101009
NMEA,$PSSGR,GSA,A,3,302,304,306,309,310,325,336,,,,,,0.8,0.5,0.6,3,1*7C,1774106101009
NMEA,$GNGSA,A,3,13,19,20,29,35,,,,,,,,0.8,0.5,0.6,4*3A,1774106101009
NMEA,$PSSGR,GSA,A,3,219,220,229,235,,,,,,,,,0.8,0.5,0.6,4,5*41,1774106101009
NMEA,$GNVTG,4.0,T,358.8,M,1.8,N,3.3,K,A*36,1774106101009
NMEA,$GNDTM,W84,,0000.000000,N,00000.000000,E,0.000,W84*41,1774106101009
NMEA,$GNRMC,151501.00,A,3210.124064,N,03448.796634,E,1.8,4.0,210326,5.2,E,A,V*59,1774106101009
NMEA,$GNGNS,151501.00,3210.124064,N,03448.796634,E,AAAANN,23,0.5,23.7,19.1,,,V*1F,1774106101009
NMEA,$GNGGA,151501.00,3210.124064,N,03448.796634,E,1,12,0.5,23.7,M,19.1,M,,*4D,1774106101009
NMEA,$PSMSG,magcal=PASS,bluesky=0*00,1774106101016
NMEA,$GPGSV,3,1,09,02,27,307,31,08,51,302,30,10,57,023,32,16,18,213,30,1*6E,1774106101999
NMEA,$GPGSV,3,2,09,23,21,046,28,27,75,232,27,32,56,133,33,36,00,000,34,1*66,1774106101999
NMEA,$GPGSV,3,3,09,49,00,000,34,1*57,1774106101999
NMEA,$GPGSV,2,1,05,08,51,302,25,10,57,023,28,23,21,046,22,27,75,232,30,8*6E,1774106101999
NMEA,$GPGSV,2,2,05,32,56,133,29,8*50,1774106101999
NMEA,$GLGSV,2,1,07,,00,000,35,66,54,188,31,79,06,281,25,,00,000,29,1*77,1774106101999
NMEA,$GLGSV,2,2,07,87,16,109,15,,00,000,34,72,14,028,12,1*45,1774106101999
NMEA,$GAGSV,3,1,09,02,28,279,28,04,40,073,30,06,48,109,27,09,42,146,26,7*7E,1774106101999
NMEA,$GAGSV,3,2,09,10,32,072,23,11,52,045,25,25,26,219,34,34,05,286,21,7*7D,1774106101999
NMEA,$GAGSV,3,3,09,36,46,318,25,7*40,1774106101999
NMEA,$GAGSV,3,1,09,02,28,279,27,04,40,073,24,06,48,109,23,09,42,146,21,1*71,1774106101999
NMEA,$GAGSV,3,2,09,10,32,072,24,11,52,045,23,25,26,219,27,34,05,286,16,1*7C,1774106101999
NMEA,$GAGSV,3,3,09,36,46,318,24,1*47,1774106101999
NMEA,$GQGSV,1,1,01,05,00,000,39,1*5B,1774106101999
NMEA,$GBGSV,2,1,07,60,30,115,25,35,41,318,29,29,72,093,29,20,59,048,31,1*78,1774106101999
NMEA,$GBGSV,2,2,07,19,65,201,36,13,27,039,31,05,46,138,27,1*4B,1774106101999
NMEA,$GBGSV,2,1,05,19,65,201,28,20,59,048,22,29,72,093,25,30,22,123,14,5*71,1774106101999
NMEA,$GBGSV,2,2,05,35,41,318,21,5*4D,1774106101999
NMEA,$GNGSA,A,3,02,08,10,16,23,27,32,,,,,,0.8,0.5,0.6,1*33,1774106102015
NMEA,$PSSGR,GSA,A,3,08,10,23,27,32,,,,,,,,0.8,0.5,0.6,1,8*42,1774106102015
NMEA,$GNGSA,A,3,66,72,79,,,,,,,,,,0.8,0.5,0.6,2*32,1774106102015
NMEA,$GNGSA,A,3,02,04,06,09,10,25,34,36,,,,,0.8,0.5,0.6,3*35,1774106102015
NMEA,$PSSGR,GSA,A,3,302,304,306,309,310,325,336,,,,,,0.8,0.5,0.6,3,1*7C,1774106102015
NMEA,$GNGSA,A,3,13,19,20,29,35,60,,,,,,,0.8,0.5,0.6,4*3C,1774106102015
NMEA,$PSSGR,GSA,A,3,219,220,229,235,,,,,,,,,0.8,0.5,0.6,4,5*41,1774106102015
NMEA,$GNVTG,12.1,T,6.9,M,1.4,N,2.7,K,A*00,1774106102015
NMEA,$GNDTM,W84,,0000.000000,N,00000.000000,E,0.000,W84*41,1774106102015
NMEA,$GNRMC,151502.00,A,3210.124377,N,03448.796865,E,1.4,12.1,210326,5.2,E,A,V*6B,1774106102015
NMEA,$GNGNS,151502.00,3210.124377,N,03448.796865,E,AAAANN,24,0.5,23.0,19.1,,,V*17,1774106102015
NMEA,$GNGGA,151502.00,3210.124377,N,03448.796865,E,1,12,0.5,23.0,M,19.1,M,,*42,1774106102015
NMEA,$PSMSG,magcal=PASS,bluesky=0*00,1774106102020
NMEA,$GPGSV,3,1,09,02,27,307,28,08,51,302,27,10,57,023,32,16,18,213,25,1*64,1774106102999
NMEA,$GPGSV,3,2,09,23,21,046,29,27,75,232,24,32,56,133,35,36,00,000,34,1*62,1774106102999
NMEA,$GPGSV,3,3,09,49,00,000,34,1*57,1774106102999
NMEA,$GPGSV,2,1,05,08,51,302,22,10,57,023,23,23,21,046,23,27,75,232,22,8*60,1774106102999
NMEA,$GPGSV,2,2,05,32,56,133,25,8*5C,1774106102999
NMEA,$GLGSV,2,1,07,,00,000,28,66,54,188,30,79,06,281,25,,00,000,25,1*76,1774106102999
NMEA,$GLGSV,2,2,07,87,16,109,15,,00,000,31,72,14,028,12,1*40,1774106102999
NMEA,$GAGSV,3,1,09,02,28,279,28,04,40,073,23,06,48,109,23,09,42,146,26,7*78,1774106102999
NMEA,$GAGSV,3,2,09,10,32,072,23,11,52,045,25,25,26,219,25,34,05,286,21,7*7D,1774106102999
NMEA,$GAGSV,3,3,09,36,46,318,27,7*42,1774106102999
NMEA,$GAGSV,3,1,09,02,28,279,21,04,40,073,24,06,48,109,22,09,42,146,22,1*75,1774106102999
NMEA,$GAGSV,3,2,09,10,32,072,24,11,52,045,23,25,26,219,22,34,05,286,16,1*79,1774106102999
NMEA,$GAGSV,3,3,09,36,46,318,23,1*40,1774106102999
NMEA,$GQGSV,1,1,01,05,00,000,39,1*5B,1774106102999
NMEA,$GBGSV,2,1,07,60,30,115,25,35,41,318,27,29,72,093,29,20,59,048,30,1*77,1774106102999
NMEA,$GBGSV,2,2,07,19,65,201,29,13,27,039,31,05,46,138,27,1*45,1774106102999
NMEA,$GBGSV,1,1,04,19,65,201,28,20,59,048,22,29,72,093,21,35,41,318,21,5*7B,1774106102999
NMEA,$GNGSA,A,3,02,08,10,16,23,27,32,,,,,,0.8,0.5,0.6,1*33,1774106103012
NMEA,$PSSGR,GSA,A,3,08,10,23,27,32,,,,,,,,0.8,0.5,0.6,1,8*42,1774106103012
NMEA,$GNGSA,A,3,66,72,79,,,,,,,,,,0.8,0.5,0.6,2*32,1774106103012
NMEA,$GNGSA,A,3,02,04,06,09,10,25,34,36,,,,,0.8,0.5,0.6,3*35,1774106103012
NMEA,$PSSGR,GSA,A,3,302,304,306,309,310,325,336,,,,,,0.8,0.5,0.6,3,1*7C,1774106103012
NMEA,$GNGSA,A,3,13,19,20,29,35,60,,,,,,,0.8,0.5,0.6,4*3C,1774106103012
NMEA,$PSSGR,GSA,A,3,219,220,229,235,,,,,,,,,0.8,0.5,0.6,4,5*41,1774106103012
NMEA,$GNVTG,9.2,T,4.0,M,1.3,N,2.5,K,A*37,1774106103012
NMEA,$GNDTM,W84,,0000.000000,N,00000.000000,E,0.000,W84*41,1774106103012
NMEA,$GNRMC,151503.00,A,3210.124749,N,03448.796980,E,1.3,9.2,210326,5.2,E,A,V*57,1774106103012
NMEA,$GNGNS,151503.00,3210.124749,N,03448.796980,E,AAAANN,24,0.5,22.8,19.1,,,V*1C,1774106103012
NMEA,$GNGGA,151503.00,3210.124749,N,03448.796980,E,1,12,0.5,22.8,M,19.1,M,,*49,1774106103012
NMEA,$PSMSG,magcal=PASS,bluesky=0*00,1774106103019
NMEA,$GPGSV,3,1,09,02,27,307,32,08,51,302,31,10,57,023,32,16,18,213,23,1*6E,1774106103998
NMEA,$GPGSV,3,2,09,23,21,046,31,27,75,232,24,32,56,133,32,36,00,000,34,1*6C,1774106103998
NMEA,$GPGSV,3,3,09,49,00,000,34,1*57,1774106103998
NMEA,$GPGSV,2,1,05,08,51,302,24,10,57,023,26,23,21,046,23,27,75,232,21,8*60,1774106103998
NMEA,$GPGSV,2,2,05,32,56,133,25,8*5C,1774106103998
NMEA,$GLGSV,2,1,07,,00,000,29,66,54,188,28,79,06,281,21,,00,000,32,1*7C,1774106103998
NMEA,$GLGSV,2,2,07,87,16,109,15,,00,000,35,72,14,028,12,1*44,1774106103998
NMEA,$GAGSV,3,1,09,02,28,279,22,04,40,073,27,06,48,109,26,09,42,146,24,7*71,1774106103998
NMEA,$GAGSV,3,2,09,10,32,072,26,11,52,045,25,25,26,219,24,34,05,286,21,7*79,1774106103998
NMEA,$GAGSV,3,3,09,36,46,318,29,7*4C,1774106103998
NMEA,$GAGSV,3,1,09,02,28,279,20,04,40,073,19,06,48,109,21,09,42,146,22,1*79,1774106103998
NMEA,$GAGSV,3,2,09,10,32,072,24,11,52,045,19,25,26,219,21,34,05,286,16,1*73,1774106103998
NMEA,$GAGSV,3,3,09,36,46,318,23,1*40,1774106103998
NMEA,$GQGSV,1,1,01,05,00,000,37,1*55,1774106103998
NMEA,$GBGSV,2,1,07,60,30,115,25,35,41,318,32,29,72,093,30,20,59,048,26,1*7C,1774106103998
NMEA,$GBGSV,2,2,07,19,65,201,27,13,27,039,24,05,46,138,27,1*4F,1774106103998
NMEA,$GBGSV,1,1,04,19,65,201,19,20,59,048,19,29,72,093,22,35,41,318,22,5*71,1774106103998
NMEA,$GNGSA,A,3,02,08,10,16,23,27,32,,,,,,0.8,0.5,0.6,1*33,1774106104010
NMEA,$PSSGR,GSA,A,3,08,10,23,27,32,,,,,,,,0.8,0.5,0.6,1,8*42,1774106104010
NMEA,$GNGSA,A,3,66,72,79,,,,,,,,,,0.8,0.5,0.6,2*32,1774106104010
NMEA,$GNGSA,A,3,02,04,06,09,10,25,34,36,,,,,0.8,0.5,0.6,3*35,1774106104010
NMEA,$PSSGR,GSA,A,3,302,304,306,309,310,325,336,,,,,,0.8,0.5,0.6,3,1*7C,1774106104010
NMEA,$GNGSA,A,3,13,19,20,29,35,60,,,,,,,0.8,0.5,0.6,4*3C,1774106104010
