     3.04           OBSERVATION DATA    M                   RINEX VERSION / TYPE
GnssLogger          samsung 16          20260321 151815 UTC PGM / RUN BY / DATE
Google GnssLogger                                           MARKER NAME
Unknown                                                     MARKER NUMBER
Unknown             Unknown                                 OBSERVER / AGENCY
Unknown             GnssLogger          v3.1.1.2            REC # / TYPE / VERS
Unknown             Unknown                                 ANT # / TYPE
        0.0000        0.0000        0.0000                  ANTENNA: DELTA H/E/N
G    6 C1C D1C S1C C5Q D5Q S5Q                              SYS / # / OBS TYPES
R    3 C1C D1C S1C                                          SYS / # / OBS TYPES
C    6 C2I D2I S2I C5Q D5Q S5Q                              SYS / # / OBS TYPES
E    6 C1C D1C S1C C5Q D5Q S5Q                              SYS / # / OBS TYPES
  2026    03    21    15    18   15.0000000     GPS         TIME OF FIRST OBS
 6 R02 -4 R03  5 R08  6 R15  0 R23  3 R24  2                GLONASS SLOT / FRQ #
samsung SM-S906E (Android 16) HW Year: 2018 HW Model:       COMMENT

                                                            END OF HEADER
> 2026 03 21 15 18 15.4188807  0 22                      
G02  23057713.45025      2098.60025        31.80025                                                
G08  21084314.00625      1318.66125        33.70025  21081957.93724       983.98124        27.40024
G10  21486120.44126     -1645.71526        38.10026  21483766.17124     -1229.52324        25.90024
G27  20436507.77324      -849.35024        29.40024  20434154.10225      -633.45925        32.60025
G32  21147541.43426      1302.68426        36.50026  21145193.76025       972.46325        29.50025
R02  19986052.21726      2558.73826        36.20026
R15  24036622.46523     -2126.25023        21.10023
R24  19799576.81126       487.53426        35.50026
C48  21429721.98527      -372.13727        41.80027                                                
C35  23265807.48924      2229.90024        28.70024                                                
C29  21595074.61426      -535.24826        37.90026  21593186.52125      -404.06525        30.60025
C20  22558988.31025     -1546.83925        35.40025  22557094.52125     -1166.54725        31.70025
C19  22179889.65525      1342.89625        29.70025  22177996.46524      1011.60024        23.90024
C13  39120355.31425      -786.04725        30.40025                                                
E02  26082344.44124      -726.10024        28.20024  26080429.66724      -538.05324        28.70024
E04  25133886.54525      -265.03725        30.70025  25131974.46924      -197.79524        25.60024
E06  24570030.89424      1075.78124        29.00024  24568121.21624       795.82324        27.50024
E09  24887316.54224      2222.25024        27.40024  24885408.36324      1655.75724        27.50024
E10  25998452.61824     -1221.35024        26.50024  25996541.44124      -918.50024        24.10024
E11  22960100.42624      -506.50524        25.70024  22958185.35223      -382.45023        21.40023
E25  26285033.22324     -2527.60024        25.50024  26283128.04224     -1885.55024        23.50024
E36  24786975.70623      1026.85023        23.00023  24785067.52723       764.20023        21.60023
> 2026 03 21 15 18 16.4188807  0 27                      
G02  23057323.12025      2099.09925        33.30025                                                
G08  21084063.07926      1317.03026        39.60026  21081707.01124       983.92124        27.00024
G10  21486432.52525     -1647.17425        33.80025  21484080.05324     -1228.79224        25.60024
G23  23452813.52823     -2802.90023        22.20023  23450461.65623     -2092.50023        19.60023
G27  20436662.16625      -849.45025        29.70025  20434316.59025      -634.04725        33.70025
G32  21147299.80226      1301.46926        36.90026  21144949.72924       972.61124        24.60024
R02  19985582.14225      2557.63925        31.90025
R15  24036978.91823     -2131.75023        21.30023
R24  19799488.97226       486.07026        40.70026
R23  23068830.95323     -2609.55023        19.60023
C48  21429794.83427      -373.79327        42.60027                                                
C35  23265367.39425      2227.75925        32.80025  23263476.60324      1678.75024        24.20024
C29  21595180.44027      -536.63527        42.20027  21593289.05025      -404.02825        30.80025
C20  22559281.80726     -1548.82526        35.60026  22557392.21525     -1166.87725        31.50025
C19  22179634.23124      1345.85024        27.90024  22177740.14324      1013.26124        26.50024
C13  39120507.90925      -787.64225        35.00025                                                
C05  37534070.37624        31.20024        25.60024                                                
C02  38512611.24724        29.70024        26.50024                                                
E02  26082484.14524      -717.81724        28.50024  26080563.97424      -538.57424        28.80024
E04  25133935.11125      -265.34525        32.60025  25132036.82623      -197.50023        20.80023
E06  24569830.33325      1075.66225        32.90025  24567917.95724       802.75024        25.10024
E09  24886898.63125      2217.60825        31.20025  24884982.05824      1654.18924        25.70024
E10  25998687.05625     -1226.08125        31.50025  25996778.57723      -917.85023        21.00023
E11  22960198.75825      -513.79325        29.60025  22958281.58524      -379.41024        24.60024
E12  27670977.95323     -1601.25023        17.50023                                                
E25  26285518.88725     -2522.13525        29.80025                                                
E36  24786790.13524      1023.82524        25.20024  24784870.26424       762.37024        26.40024
> 2026 03 21 15 18 17.4188807  0 26                      
G02  23056910.00625      2091.26425        33.20025                                                
G08  21083808.25626      1309.86626        38.70026  21081456.68424       977.67424        25.90024
G10  21486757.50024     -1654.50024        28.30024  21484396.93424     -1235.39724        27.50024
G18  24561703.25923     -2365.25023        18.70023                                                
G23  23453354.05324     -2816.10024        24.30024                                                
G27  20436828.55126      -857.30826        35.80026  20434478.47825      -640.47525        34.10025
G32  21147062.36625      1291.64525        30.60025  21144701.20125       965.43925        29.80025
R02  19985099.17625      2548.95825        34.20025
R15  24037394.73025     -2138.87025        30.00025
R24  19799402.63126       478.98926        38.90026
C60  38538863.77224         3.25024        29.00024                                                
C48  21429868.58327      -380.94927        42.60027                                                
C35  23264938.39124      2222.50024        27.90024  23263046.40124      1673.22824        28.40024
C29  21595282.66927      -543.96627        41.80027  21593392.17825      -410.17925        31.60025
C20  22559581.89926     -1555.49026        40.40026  22557690.20925     -1172.24125        30.90025
C19  22179373.11224      1337.10024        29.00024  22177482.92124      1006.22924        29.00024
C13  39120659.00425      -793.26925        34.90025                                                
E02  26082616.95325      -729.04125        31.00025  26080702.77824      -544.67024        26.30024
E04  25133992.07224      -272.38424        29.40024  25132078.79623      -202.05023        22.80023
E06  24569627.37425      1067.28025        33.00025  24567715.89724       797.06924        26.00024
E09  24886480.42123      2211.20023        21.60023  24884564.74723      1650.70023        22.40023
E10  25998926.29024     -1233.83524        28.90024  25997012.11624      -922.33824        25.50024
E11  22960296.19025      -520.74425        30.30025  22958380.81623      -387.15023        22.40023
E12  27671285.54023     -1601.70023        20.60023  27669371.96522     -1193.90022        16.90022
E25  26286008.14823     -2532.50023        23.10023  26284091.87423     -1888.40023        19.10023
E36  24786591.97225      1014.35025        30.30025                                                
> 2026 03 21 15 18 18.4188807  0 25                      
G02  23056518.17725      2093.17125        33.70025                                                
G08  21083559.42826      1310.89426        38.00026  21081205.45824       979.03424        24.50024
G10  21487062.68924     -1654.65024        24.90024  21484711.11725     -1233.33025        30.30025
G18  24562134.66124     -2364.40024        24.60024  24559776.19322     -1767.55022        16.70022
G23  23453885.28623     -2807.90023        23.00023  23451536.71223     -2096.45023        23.00023
G27  20437000.33226      -856.58126        39.10026  20434641.56525      -639.67425        33.30025
G32  21146794.35224      1293.30024        28.90024  21144456.57024       966.38024        27.60024
R02  19984622.80625      2548.99925        34.90025
R15  24037789.55725     -2137.49425        30.60025
R24  19799304.59926       480.96826        40.80026
C48  21429939.93427      -379.64127        41.70027                                                
C35  23264506.09024      2224.65024        26.50024  23262623.39424      1675.57824        28.30024
C29  21595387.29726      -542.55026        41.40026  21593495.60725      -408.72425        29.50025
C20  22559880.79226     -1553.61526        41.10026  22557986.70324     -1170.44224        28.00024
C13  39120807.10124      -788.95024        29.20024                                                
E02  26082756.05624      -727.92424        28.70024  26080841.58224      -543.50524        26.00024
E04  25134043.93625      -270.86425        32.70025                                                
E06  24569423.51526      1068.95426        36.00026                                                
E09  24886058.01323      2210.10023        20.70023  24884142.63923      1650.55023        22.50023
E10  25999155.33225     -1232.12025        31.80025  25997244.45523      -919.30023        22.00023
E11  22960378.33324      -515.65724        25.30024  22958477.05024      -387.80024        23.60024
E12  27671598.82323     -1601.05023        21.50023                                                
E25  26286480.62123     -2531.50023        22.20023  26284573.04123     -1889.20023        20.90023
E36  24786396.80725      1016.29025        31.50025  24784481.13323       757.60023        21.10023
C19                                                  22177228.09724      1007.50124        28.90024
> 2026 03 21 15 18 19.4188807  0 25                      
G02  23056122.15125      2090.03425        30.40025                                                
G08  21083308.50226      1306.64726        36.70026  21080959.32824       976.95024        25.90024
G10  21487387.96325     -1655.39025        30.00025  21485027.69724     -1237.86424        25.90024
G23  23454410.22224     -2806.80024        25.30024  23452070.94223     -2099.50023        22.10023
G27  20437155.92426      -861.68926        36.30026  20434805.55125      -643.71625        32.70025
G32  21146566.20925      1293.00025        29.80025  21144208.64224       956.46224        27.70024
R02  19984151.23325      2543.17725        34.20025
R15  24038197.87424     -2139.65024        28.00024
R24  19799220.05826       476.97526        37.40026
C48  21430013.98326      -384.15626        41.40026                                                
C35  23264082.78324      2219.30024        28.00024  23262197.38824      1676.08224        27.40024
C30  24782508.49923     -2543.45023        22.90023                                                
C29  21595492.52426      -547.00626        41.10026  21593600.53424      -413.13724        29.20024
C20  22560178.48626     -1557.35826        39.70026  22558286.49625     -1172.85025        29.80025
C19  22178854.47124      1335.15024        26.90024  22176970.87524      1003.55024        29.10024
C13  39120965.99125      -793.00125        33.50025                                                
C08  40087768.48823      -902.40023        18.10023                                                
C05  37534041.29724        74.25024        24.60024                                                
E02  26082890.96324      -732.15524        28.30024  26080980.68524      -547.30024        26.20024
E04  25134092.20325      -273.78025        30.00025                                                
E06  24569219.65625      1064.27525        32.30025  24567309.97823       796.95023        21.60023
E10  25999397.86425     -1235.69525        30.10025  25997480.39123      -921.40023        22.30023
E11  22960491.35524      -517.95024        27.60024  22958572.98323      -389.90023        23.30023
E36  24786207.63824      1012.58324        29.10024  24784289.86623       757.60023        22.10023
E09                                                  24883719.93223      1648.00023        23.30023
> 2026 03 21 15 18 20.4188807  0 28                      
G02  23055718.03125      2091.22225        35.30025                                                
G08  21083065.37026      1307.38426        38.50026  21080707.80224       977.05024        27.80024
G10  21487698.84826     -1656.74926        35.50026  21485338.58224     -1235.55024        28.00024
G18  24563038.23523     -2373.40023        21.90023                                                
G23  23454960.34124     -2813.50024        27.80024                                                
G27  20437320.81026      -862.81426        36.80026  20434969.23825      -644.11125        35.00025
G32  21146326.67525      1288.64425        32.00025  21143963.41124       962.25024        29.30024
R02  19983668.86725      2541.39925        34.60025
R15  24038609.78924     -2143.25024        27.60024
R24  19799130.42026       476.98626        37.60026
R23  23070809.58322     -2614.75022        17.20022
C60  38538856.57724         1.65024        28.30024                                                
C48  21430087.73226      -384.75926        41.20026                                                
C35  23263664.27325      2220.11225        33.90025  23261771.38324      1672.75224        28.00024
C30  24783002.85723     -2545.95023        22.90023                                                
C29  21595595.65326      -547.95326        41.20026  21593705.76124      -412.60024        28.00024
C20  22560480.07726     -1557.61926        39.80026  22558585.08925     -1174.39325        30.80025
C19  22178596.05025      1331.04525        30.50025  22176713.65324      1001.25024        28.70024
C13  39121119.18525      -791.08025        31.90025                                                
E02  26083027.36825      -731.45925        31.90025  26081121.88824      -545.60024        24.20024
E04  25134141.96825      -276.14625        32.70025  25132237.98623      -204.50023        18.90023
E06  24569014.59825      1062.53025        33.40025  24567108.51723       794.05023        22.60023
E09  24885219.19425      2201.80025        29.70025  24883303.82024      1644.70024        24.60024
E10  25999630.50324     -1237.10324        26.70024  25997714.82924      -922.35024        25.40024
E11  22960590.28724      -518.11624        28.70024  22958676.71124      -389.77624        26.50024
E12  27672211.59923     -1607.15023        20.50023                                                
E25  26287438.15823     -2537.35023        21.90023  26285534.17623     -1895.00023        21.30023
E36  24786011.27425      1013.63425        30.00025  24784095.00123       756.50023        22.00023
> 2026 03 21 15 18 21.4188807  0 28                      
G02  23055320.50625      2090.31025        31.80025                                                
G08  21082811.14626      1305.84026        39.10026  21080458.67524       974.83224        29.00024
G10  21488012.73125     -1658.42725        34.70025  21485656.36224     -1238.20024        24.00024
G18  24563502.31423     -2373.25023        22.80023                                                
G23  23455522.75224     -2808.15024        26.00024                                                
G27  20437483.29726      -864.69326        35.50026  20435131.72525      -646.17225        32.50025
G32  21146070.65326      1285.01126        36.90026  21143714.58423       958.75023        21.90023
R02  19983182.60326      2538.63626        37.30026
R15  24038979.13423     -2144.10023        22.60023
R24  19799051.27524       476.50024        26.20024
R23  23071211.90523     -2616.15023        21.80023
C48  21430159.98226      -386.64526        38.00026                                                
C35  23263234.37126      2220.21826        35.80026  23261344.47924      1672.72824        24.90024
C30  24783488.22124     -2548.25024        25.60024                                                
C29  21595701.48026      -549.74326        39.90026  21593810.68924      -414.60024        27.30024
C20  22560775.37326     -1558.74226        36.30026  22558885.78124     -1175.44024        25.70024
C19  22178349.32125      1328.54625        35.20025  22176456.73125      1000.77825        32.20025
C13  39121275.37724      -797.30024        24.70024                                                
C02  38512597.75623         6.70023        23.40023                                                
E02  26083172.76825      -733.29425        34.50025  26081258.89324      -547.65724        28.50024
E04  25134197.13025      -277.36125        30.80025  25132286.85224      -207.48324        24.40024
E06  24568815.83526      1060.33026        36.80026  24566904.35924       791.69024        27.10024
E09  24884801.58324      2210.60724        25.70024  24882881.11223      1643.65023        21.50023
E10  25999863.74125     -1237.68525        32.20025  25997952.26524      -923.75024        26.70024
E11  22960695.51424      -522.81924        27.30024  22958775.94324      -390.68424        25.80024
E12  27672507.19524     -1608.79924        23.70024  27670597.51723     -1198.40023        18.00023
E25  26287925.32125     -2539.90125        30.90025  26286015.64324     -1896.48524        28.10024
E36  24785814.31025      1013.63425        31.60025  24783904.93224       757.24824        27.40024
> 2026 03 21 15 18 22.4188807  0 29                      
G02  23054921.48324      2086.55024        25.50024                                                
G08  21082563.51826      1305.42226        38.20026  21080211.34625       975.11525        33.70025
G10  21488327.21326     -1653.96126        35.60026  21485969.64524     -1234.40024        28.30024
G23  23456029.10223     -2811.55023        22.70023  23453674.23222     -2099.45022        17.10022
G27  20437650.88126      -864.65126        37.50026  20435295.41225      -645.49325        32.80025
G32  21145826.32226      1285.54726        40.40026  21143470.25324       966.73224        26.50024
R02  19982710.13026      2538.62526        36.70026
R15  24039409.93523     -2141.80023        22.20023
R24  19798944.24924       476.35024        28.30024
R23  23071732.04524     -2617.10024        25.10024
C60  38538859.27525         2.40025        31.80025                                                
C48  21430236.12926      -385.99826        37.10026                                                
C35  23262805.06826      2220.46226        36.90026  23260917.87424      1672.50024        24.60024
C30  24783987.37524     -2551.40024        25.70024                                                
C29  21595809.10526      -548.90926        39.60026  21593917.11523      -411.65023        22.70023
C20  22561079.96224     -1558.15024        29.00024  22559183.77523     -1174.40023        23.10023
C19  22178095.39725      1328.08225        35.20025  22176201.00825      1000.68825        33.40025
C13  39121416.28024      -795.20024        25.40024                                                
C05  37534007.72024        60.80024        28.60024                                                
E02  26083311.27225      -733.32625        34.40025                                                
E04  25134251.39225      -275.87525        30.60025                                                
E06  24568611.37725      1061.58425        31.90025  24566700.80024       793.05024        23.90024
E09  24884374.67824      2200.55024        27.80024                                                
E10  26000101.47725     -1236.26025        31.10025  25998190.60024      -924.40024        23.80024
E11  22960796.54424      -525.47224        25.70024  22958872.77624      -390.00024        24.50024
E12  27672812.08324     -1608.08024        27.30024  27670899.10824     -1200.00024        26.50024
E25  26288403.19025     -2539.86425        32.10025  26286498.90825     -1896.25025        30.90025
E36  24785620.34526      1014.72626        36.00026  24783711.26624       755.54824        26.30024
G18                                                  24561587.83922     -1768.15022        16.40022
> 2026 03 21 15 18 23.4188807  0 27                      
G02  23054537.14924      2088.90024        29.30024                                                
G08  21082317.08827      1306.72327        43.70027  21079962.81826       975.91526        36.20026
G10  21488642.59526     -1653.08526        36.60026  21486285.02724     -1234.14524        28.90024
G16  24267655.42425     -2980.60025        33.10025                                                
G23  23456577.42224     -2811.60024        23.50024                                                
G27  20437817.86627      -862.78527        41.70027  20435459.99825      -644.29625        31.80025
G32  21145579.59227      1288.13927        44.00027  21143228.62025       961.74425        31.00025
R02  19982236.75826      2540.76626        39.30026
R15  24039728.01523     -2146.35023        22.60023
R24  19798864.50426       478.21726        36.00026
R23  23072231.79924     -2614.32424        29.30024
C48  21430312.87626      -383.98526        35.70026                                                
C35  23262379.66227      2221.57127        42.00027  23260499.36423      1673.90023        22.30023
C30  24784475.73724     -2548.15024        28.40024                                                
C29  21595913.43326      -546.45726        40.20026                                                
C20  22561375.85725     -1556.81025        31.20025  22559488.06424     -1172.61224        25.50024
C19  22177842.37224      1329.75024        27.70024  22175945.58525      1002.31425        34.00025
C05  37534003.22325        58.75025        33.60025                                                
E02  26083443.48025      -732.99225        30.30025  26081536.80024      -546.45024        24.70024
E04  25134302.05724      -272.93424        27.90024  25132391.18024      -204.50024        24.40024
E06  24568413.51424      1064.00524        28.80024                                                
E09  24883956.46825      2204.48725        35.30025  24882044.69123      1647.10023        22.60023
E10  26000336.81425     -1234.30025        30.10025                                                
E11  22960886.18224      -519.35024        24.80024                                                
E12  27673121.16923     -1604.70023        21.10023  27671205.49624     -1197.31624        24.80024
E25  26288894.84925     -2537.25125        33.60025  26286982.47325     -1894.70025        29.70025
E36  24785430.27626      1015.64426        36.90026  24783519.69924       757.70024        23.70024
> 2026 03 21 15 18 24.4188807  0 27                      
G02  23054129.73124      2086.50024        28.90024                                                
G08  21082068.56027      1303.18427        44.60027  21079714.59026       973.44326        36.00026
G10  21488956.77726     -1655.47326        38.10026  21486598.01023     -1237.90023        23.30023
G16  24268200.74725     -2985.40225        32.70025                                                
G23  23457122.14523     -2810.15023        22.60023                                                
G27  20437981.55227      -865.82127        43.50027  20435626.38325      -646.20025        33.50025
G32  21145335.26227      1285.47327        43.00027  21142981.89125       960.30625        32.70025
R02  19981764.28526      2537.94126        36.30026
R24  19798770.36925       475.03125        34.70025
R23  23072728.25524     -2618.50024        28.10024
C48  21430382.12826      -386.93526        37.60026                                                
C35  23261952.75827      2218.09627        43.10027  23260063.16624      1671.87524        28.60024
C30  24784960.50125     -2548.51925        32.20025                                                
C29  21596015.66226      -549.52126        37.00026  21594129.66823      -413.70023        20.30023
C20  22561675.94925     -1559.08425        33.90025  22559783.65924     -1175.14024        27.00024
C19  22177586.34924      1328.00024        26.50024  22175691.96125      1000.53425        35.40025
C02  38512553.68624        50.90024        28.10024                                                
E02  26083590.07925      -735.21225        34.00025  26081677.40325      -549.33625        31.00025
E04  25134351.52323      -275.05023        22.10023                                                
E06  24568206.05724      1062.33924        28.70024  24566298.77824       792.45024        23.80024
E09  24883536.45926      2202.73726        37.00026                                                
E10  26000564.05724     -1236.75024        26.70024                                                
E11  22960992.30824      -520.79824        27.20024                                                
E25  26289374.51725     -2539.40525        34.10025  26287464.83925     -1896.12625        30.70025
E34  28357095.56423      1743.70023        18.80023                                                
E36  24785234.51226      1013.17926        38.60026  24783324.53425       755.85025        29.80025
E12                                                  27671509.48523     -1200.00023        22.30023
> 2026 03 21 15 18 25.4188807  0 26                      
G02  23053727.10924      2089.80024        27.90024                                                
G08  21081821.23127      1304.78427        43.50027  21079467.56126       974.26326        37.40026
G10  21489269.76126     -1654.70326        37.50026                                                
G16  24268769.45325     -2981.65525        32.00025                                                
G18  24565285.77923     -2371.90023        19.40023                                                
G27  20438145.53927      -863.25827        42.00027  20435790.96925      -644.74525        34.10025
G32  21145089.13226      1288.00426        36.40026  21142738.45925       961.85625        31.80025
R02  19981292.11225      2541.54125        29.90025
R24  19798681.03124       478.40024        28.50024
R23  23073215.71823     -2610.60023        21.70023
C60  38538858.67625         2.95025        31.40025                                                
C48  21430454.97726      -385.24326        36.50026                                                
C35  23261526.15327      2219.75727        44.10027  23259636.26124      1672.52224        28.90024
C30  24785450.36225     -2547.07825        32.30025  24783580.55722     -1920.90022        16.10022
C29  21596119.09025      -547.35225        35.40025  21594230.09823      -415.05023        21.50023
C20  22561972.74425     -1558.11125        33.70025  22560082.85225     -1174.35125        29.70025
C19  22177316.83624      1329.95024        28.80024  22175437.43726      1002.45226        35.60026
E02  26083730.08226      -733.81226        39.30026  26081818.00625      -547.29125        30.90025
E04  25134413.88024      -275.01824        24.80024                                                
E06  24568006.99524      1063.40124        29.20024  24566094.91924       794.21724        28.90024
E09  24883117.94825      2205.53525        34.40025  24881212.16823      1643.90023        19.80023
E10  26000798.49424     -1237.15424        23.70024  25998890.91523      -923.25023        19.40023
E11  22961087.34324      -528.94824        28.40024                                                
E25  26289856.58425     -2535.22525        32.30025  26287947.20525     -1893.03325        30.90025
E36  24785042.94426      1013.86926        38.30026  24783131.16825       757.04225        31.60025
E34                                                  28354854.01622      1299.80022        15.90022
> 2026 03 21 15 18 26.4188807  0 25                      
G02  23053323.88924      2093.85024        24.80024                                                
G08  21081573.90326      1309.73826        39.50026  21079218.43325       977.90625        35.20025
G10  21489588.44024     -1652.10024        29.40024  21487229.67323     -1234.10023        18.60023
G16  24269335.16124     -2970.80024        28.40024                                                
G27  20438310.42526      -858.75526        37.70026  20435953.45625      -641.35225        32.60025
G32  21144849.89825      1289.76925        30.50025  21142492.03025       963.31225        30.10025
R02  19980809.74625      2546.31025        32.10025
R24  19798612.97824       476.90024        27.20024
R08  23411812.71221     -4097.10021        11.70021
C48  21430530.52525      -383.82925        31.40025                                                
C35  23261099.24926      2224.12926        39.80026  23259209.95724      1675.01824        28.30024
C30  24785943.22124     -2545.70424        29.30024  24784058.12623     -1919.70023        21.80023
C29  21596222.51925      -545.67625        33.30025  21594341.62123      -411.10023        20.10023
C20  22562268.03924     -1557.75024        28.50024  22560381.74524     -1174.97924        28.30024
C19  22177076.10224      1335.10024        27.90024  22175181.71425      1005.97925        33.40025
C05  37533968.14724        79.20024        28.00024                                                
E02  26083868.58625      -726.46325        32.90025  26081957.40925      -542.33125        29.90025
E04  25134462.74623      -275.45023        22.40023  25132547.97223      -207.55023        20.30023
E06  24567803.73624      1063.00024        27.20024  24565891.95925       794.49625        30.40025
E09  24882699.13825      2208.54325        30.60025                                                
E10  26001045.82324     -1235.98324        23.50024                                                
E11  22961194.66824      -520.85024        25.30024  22959278.39523      -386.85023        18.10023
E12  27674033.43822     -1606.65022        16.80022                                                
E25  26290338.95024     -2526.54624        29.40024  26288428.97224     -1886.79824        28.50024
E36  24784850.17826      1018.22426        35.70026  24782937.50224       754.52824        28.80024
> 2026 03 21 15 18 27.4188807  0 24                      
G02  23052935.65724      2101.40024        25.90024                                                
G08  21081320.27825      1314.20625        34.80025  21078968.40625       981.54425        32.40025
G10  21489899.92425     -1656.40025        29.60025  21487543.55624     -1236.47124        24.10024
G23  23458695.75523     -2807.15023        20.40023                                                
G27  20438472.01326      -856.60326        35.90026  20436117.44325      -639.47925        34.10025
G32  21144598.97126      1287.07226        38.30026  21142245.00124       961.13224        28.70024
R02  19980351.36324      2548.45024        28.70024
R24  19798517.64424       474.70024        27.90024
R23  23074217.62424     -2619.25024        25.70024
C48  21430609.97024      -381.50024        28.30024                                                
C35  23260672.34426      2228.15826        38.60026  23258782.45324      1679.47424        29.10024
C30  24786439.97724     -2547.25024        25.10024                                                
C29  21596334.04226      -548.28026        35.70026                                                
C20  22562573.22824     -1564.60024        27.00024  22560681.23823     -1176.75023        22.20023
C19  22176814.98326      1339.09026        35.60026  22174924.19225      1008.13125        32.70025
C02  38512554.88624       -23.15024        26.80024                                                
E02  26084002.29425      -716.95425        31.40025  26082094.71424      -535.51524        28.10024
E04  25134509.51424      -282.95024        24.00024  25132600.43524      -210.57424        25.80024
E06  24567599.57724      1061.28124        25.10024  24565690.19925       791.37425        30.20025
E09  24882286.92423      2207.00023        22.60023                                                
E10  26001275.46423     -1240.75023        20.40023  25999362.78823      -923.45023        22.30023
E11  22961290.90224      -523.03024        28.00024                                                
E25  26290812.92224     -2518.31224        27.00024  26288908.34024     -1880.88824        29.30024
E36  24784655.01326      1022.91726        39.60026  24782743.53625       764.09525        32.50025
> 2026 03 21 15 18 28.4188807  0 22                      
G02  23052518.64625      2111.58225        30.70025                                                
G08  21081071.45126      1322.71126        38.00026  21078717.18025       987.09825        30.30025
G10  21490215.90625     -1648.56725        32.60025  21487856.23924     -1232.39324        26.10024
G23  23459228.78624     -2803.15024        26.20024  23456880.81222     -2098.45022        15.60022
G27  20438638.09825      -851.30125        32.80025  20436280.23025      -635.83125        34.50025
G32  21144351.34325      1289.16125        35.20025  21141999.77124       962.78924        24.40024
R02  19979847.71225      2552.46625        33.70025
R15  24041831.65923     -2126.40023        20.40023
R24  19798420.21123       481.20023        23.20023
C60  38538855.07824         0.25024        27.90024                                                
C48  21430676.52425      -380.02725        30.80025                                                
C35  23260242.74225      2237.77925        34.60025  23258356.44724      1686.65024        23.90024
C29  21596439.86825      -544.37025        35.30025  21594546.07923      -410.85023        21.20023
C20  22562864.02724     -1552.60024        25.30024  22560979.23223     -1173.95023        22.20023
C19  22176555.36326      1342.25826        36.10026  22174667.86925      1011.48025        32.50025
E02  26084141.09725      -708.33325        32.80025  26082228.72125      -528.84125        33.60025
E04  25134565.57524      -280.94424        26.90024  25132649.30223      -211.85023        22.00023
E09  24881860.91923      2207.15023        21.00023  24879943.14623      1649.55023        20.10023
E11  22961396.42923      -516.95023        22.20023                                                
E25  26291297.08624     -2513.66724        27.40024  26289389.20724     -1876.92424        26.10024
E36  24784459.84825      1031.42425        33.30025  24782550.17025       770.23325        31.20025
E06                                                  24565487.83924       793.05024        23.70024
> 2026 03 21 15 18 29.4188807  0 24                      
G02  23052127.11725      2108.55025        31.50025                                                
G08  21080815.72825      1325.18925        35.00025  21078467.45324       989.85024        25.80024
G10  21490528.88925     -1650.09425        35.10025  21488171.62124     -1238.65424        24.90024
G23  23459776.80723     -2810.10023        23.20023  23457415.34224     -2100.27824        24.20024
G27  20438796.08826      -850.93526        37.90026  20436443.01725      -635.78725        33.30025
G32  21144107.31226      1287.26826        36.50026  21141755.74024       960.47524        25.80024
R02  19979365.34625      2551.07325        33.30025
R15  24042197.10624     -2109.70024        27.70024
R24  19798321.88025       477.82425        29.90025
C48  21430755.07025      -380.90625        33.70025                                                
C35  23259816.13725      2240.03125        33.10025  23257925.94623      1685.40023        22.80023
C30  24787419.99923     -2540.20023        22.30023                                                
C20  22563177.61024     -1551.45024        24.20024  22561276.32623     -1173.25023        23.00023
C19  22176299.04026      1342.26926        35.60026  22174409.74824      1011.15124        29.40024
E02  26084274.80525      -703.80025        33.00025  26082362.42925      -525.67225        30.50025
E04  25134629.43123      -281.50023        23.00023                                                
E06  24567196.05724      1060.80024        23.90024  24565283.68124       791.28124        25.90024
E09  24881435.21324      2207.91124        23.90024  24879526.73524      1646.85024        27.30024
E10  26001743.14023     -1240.40023        19.20023                                                
E25  26291784.84924     -2509.00024        23.50024  26289866.47724     -1874.19024        24.90024
E36  24784263.48424      1034.90024        28.60024  24782352.90724       771.10024        28.50024
E11                                                  22959573.09123      -387.25023        17.90023
E12                                                  27673033.33022     -1200.40022        16.20022
C29                                                  21594650.40723      -412.25023        22.80023
> 2026 03 21 15 18 30.4188807  0 23                      
G02  23051731.09125      2121.80025        29.70025                                                
G08  21080566.30026      1328.88926        37.70026  21078215.32824       992.27524        26.70024
G10  21490840.07425     -1646.50025        32.50025  21488488.50223     -1230.60023        23.30023
G27  20438955.27827      -849.15527        41.60027  20436602.20725      -633.98625        33.40025
G32  21143865.37925      1288.95025        31.90025  21141511.40924       961.52624        24.20024
R02  19978898.26926      2553.60126        37.30026
R15  24042572.74625     -2104.15325        31.70025
R24  19798259.22324       478.00024        27.90024
R23  23075686.00823     -2607.30023        18.50023
C48  21430821.92325      -380.70525        34.40025                                                
C35  23259380.53925      2245.57625        32.00025                                                
C30  24787912.85824     -2544.85024        23.80024                                                
C29  21596659.91623      -533.90023        23.10023  21594757.43324      -410.65024        24.90024
C20  22563475.30424     -1554.70024        27.40024  22561573.42023     -1175.00023        20.70023
C19  22176040.31926      1343.91326        39.50026  22174150.72725      1012.43225        32.50025
E02  26084405.21526      -698.74526        35.90026  26082495.83625      -521.70725        33.60025
E04  25134671.40223      -284.75723        23.40023                                                
E06  24566997.29425      1057.82725        29.90025  24565084.01923       788.95023        23.40023
E09  24881014.00523      2208.10023        23.10023  24879106.72524      1646.31824        25.20024
E25  26292253.12524     -2505.86324        27.20024  26290342.84724     -1872.69924        26.30024
E34  28355057.27522      1782.05022        16.60022                                                
E36  24784066.22124      1042.44624        28.50024  24782152.34624       777.50024        24.20024
E10                                                  26000072.69723      -928.20023        17.80023
> 2026 03 21 15 18 31.4188807  0 21                      
G02  23051306.88524      2126.95024        27.80024                                                
G08  21080312.97626      1331.35426        40.90026  21077961.40425       994.61325        29.50025
G10  21491149.45926     -1650.90326        38.30026  21488797.88724     -1232.75024        25.40024
G27  20439117.16627      -849.05927        42.40027  20436763.19625      -633.90725        33.20025
G32  21143628.54325      1282.57625        33.80025  21141266.77824       958.09724        26.00024
R02  19978418.00226      2551.66326        39.10026
R15  24042963.97525     -2098.28725        31.40025
R24  19798154.89525       475.71425        30.20025
C48  21430894.77325      -382.69225        35.00025                                                
C35  23258950.03726      2248.06026        35.70026  23257060.74423      1693.85023        20.30023
C30  24788393.72524     -2563.75024        28.70024                                                
C20  22563772.09824     -1561.45024        28.60024  22561875.01224     -1177.74424        23.70024
C19  22175781.59826      1343.78026        40.10026  22173892.30625      1013.01125        31.00025
E02  26084538.02325      -693.30025        35.20025  26082628.34525      -517.70225        33.40025
E06  24566794.03525      1049.80025        29.90025  24564883.15824       785.40024        24.00024
E09  24880599.69223      2201.70023        22.20023  24878688.21524      1644.52224        29.30024
E11  22961705.21522      -517.90022        16.40022                                                
E25  26292731.89325     -2504.40125        30.90025  26290822.21524     -1869.87024        29.20024
E34  28354725.40524      1790.95324        29.20024                                                
E36  24783864.76024      1042.05924        28.90024  24781956.88124       777.96624        25.00024
C29                                                  21594859.36324      -413.15024        23.90024
> 2026 03 21 15 18 32.4188807  0 23                      
G02  23050908.46125      2133.85025        29.90025                                                
G08  21080060.85026      1332.82826        40.40026  21077707.77924       997.42424        28.40024
G10  21491465.14126     -1651.05126        38.30026  21489111.77024     -1233.15024        25.10024
G18  24568441.39522     -2381.25022        17.40022                                                
G27  20439281.45227      -848.40727        43.00027  20436925.38425      -633.40325        31.80025
G32  21143383.91225      1282.64625        31.30025  21141021.24823       958.50023        23.40023
R02  19977936.53526      2551.81926        40.80026
R15  24043355.50425     -2095.59525        32.90025
R24  19798058.66225       475.40525        33.70025
C48  21430971.22026      -382.57526        37.30026                                                
C35  23258519.53525      2249.32625        35.10025  23256629.34323      1692.60023        19.50023
C30  24788884.78524     -2554.90024        28.60024                                                
C29  21596859.87823      -546.40023        22.40023  21594961.29223      -414.75023        21.30023
C20  22564079.08624     -1556.35024        28.40024  22562176.00324     -1177.88124        24.40024
C19  22175524.07726      1344.36726        39.80026  22173634.18525      1013.22525        31.40025
C13  39122940.12523      -783.75023        18.90023                                                
E02  26084672.92926      -690.63226        36.70026  26082760.85325      -515.81625        33.80025
E04  25134782.32524      -288.00024        24.50024  25132873.54623      -213.45023        19.10023
E06  24566593.47425      1051.90725        30.70025  24564682.89624       782.20724        24.40024
E09  24880180.88224      2197.99724        26.10024  24878268.80525      1645.18225        29.90025
E25  26293207.96325     -2502.40725        29.60025  26291298.28625     -1866.90125        29.60025
E34  28354385.44025      1795.01325        30.30025                                                
E36  24783668.09625      1043.56625        31.40025  24781757.21924       778.15724        26.00024
> 2026 03 21 15 18 33.4188807  0 26                      
G02  23050516.63226      2128.28626        37.40026                                                
G08  21079805.42727      1330.50027        41.60027  21077453.85524       994.80024        25.70024
G10  21491784.72026     -1652.98426        38.10026  21489429.85024     -1234.70024        25.60024
G16  24273257.34624     -2952.45024        25.90024                                                
G27  20439442.74127      -851.30827        43.80027  20437086.67225      -635.81025        33.10025
G32  21143134.18524      1286.75024        27.90024  21140777.51723       955.15023        23.10023
R02  19977455.66825      2540.91025        31.60025
R15  24043768.01824     -2099.45024        28.20024
R24  19797975.02025       471.60725        33.70025
R23  23077179.87323     -2633.60023        21.50023
C60  38538845.18524        45.55024        24.30024                                                
C48  21431044.96926      -385.54126        37.10026                                                
C35  23258084.23626      2247.56126        37.70026  23256198.24223      1693.55023        20.70023
C30  24789380.04223     -2566.95023        23.10023  24787500.34322     -1929.30022        16.00022
C20  22564372.58325     -1561.75025        30.30025  22562475.79623     -1178.40023        20.90023
C19  22175267.75426      1341.04526        36.50026  22173377.86324      1004.00524        27.50024
E02  26084804.53826      -693.12326        35.80026  26082892.16225      -517.64525        33.40025
E04  25134844.98224      -289.41624        25.90024                                                
E06  24566399.50825      1047.83325        31.10025  24564480.83624       783.10024        23.90024
E09  24879765.96924      2201.87424        23.90024  24877850.59524      1645.98424        27.10024
E10  26002695.28122     -1249.15022        16.50022                                                
E11  22961876.09723      -524.55023        20.10023                                                
E25  26293681.33624     -2500.45024        29.20024  26291772.55724     -1867.75024        28.80024
E34  28354045.47525      1793.14325        32.20025                                                
E36  24783472.03225      1041.42625        31.40025  24781560.25524       772.05224        27.70024
C29                                                  21595072.81523      -413.80023        22.90023
> 2026 03 21 15 18 34.4188807  0 25                      
G02  23050099.02126      2131.09126        37.80026                                                
G08  21079552.40227      1333.14227        42.60027  21077201.43024       996.37424        28.50024
G10  21492089.30926     -1650.75526        36.30026  21489741.93424     -1233.55024        26.10024
G16  24273825.45324     -2951.15024        27.60024                                                
G27  20439603.43027      -848.91827        44.40027  20437248.26025      -633.50825        33.60025
G32  21142902.14624      1284.10024        28.70024                                                
R02  19976981.99626      2551.05026        40.60026
R24  19797891.07825       473.69925        34.00025
R23  23077599.58324     -2638.95024        27.40024
C48  21431123.21526      -383.55926        38.00026                                                
C35  23257654.93326      2250.39226        40.40026  23255765.04123      1695.25023        23.00023
C30  24789871.70224     -2560.25024        25.40024                                                
C29  21597078.42623      -552.80023        21.50023  21595176.54324      -413.80024        24.10024
C20  22564677.77125     -1562.73925        32.40025  22562775.88824     -1177.46924        25.60024
C19  22175006.03526      1344.02526        40.90026  22173119.44125      1013.33025        31.60025
E02  26084932.84926      -688.93526        36.50026  26083023.17125      -514.74125        35.10025
E04  25134893.84824      -289.44924        24.10024  25132982.67123      -219.90023        19.90023
E06  24566198.34725      1050.81325        32.60025  24564283.87324       785.15024        25.50024
E11  22961979.52523      -522.85023        22.60023                                                
E25  26294156.80725     -2500.97825        30.60025  26292251.62625     -1867.38725        31.10025
E34  28353705.81125      1797.67725        32.40025  28351764.65422      1341.30022        16.10022
E36  24783268.47325      1045.45825        31.80025  24781361.79324       780.50024        28.30024
G18                                                  24567000.89221     -1769.20021        11.30021
E09                                                  24877432.38523      1642.40023        20.80023
C22                                                  25455880.73323      2445.90023        21.40023
> 2026 03 21 15 18 35.4188807  0 27                      
G02  23049693.70226      2130.90426        36.90026                                                
G08  21079299.67727      1332.29027        41.90027  21076947.20624       995.75024        26.40024
G10  21492404.09126     -1652.65526        36.70026  21490056.11624     -1234.53424        25.70024
G18  24569791.66023     -2388.70023        20.10023                                                
G23  23462986.68523     -2796.45023        20.50023  23460631.51522     -2106.95022        17.40022
G27  20439766.21727      -850.08627        42.50027  20437409.24925      -635.04125        33.70025
G32  21142645.22425      1281.60025        29.80025  21140290.35423       955.10023        22.10023
R02  19976508.32426      2549.56826        40.10026
R15  24044595.44623     -2104.50023        19.80023
R24  19797773.55925       472.17925        33.80025
C48  21431194.86526      -384.95826        37.80026                                                
C35  23257226.53026      2249.96526        39.30026  23255333.64023      1694.55023        23.00023
C30  24790363.96124     -2558.40024        26.50024                                                
C29  21597167.16524      -544.20024        23.70024  21595284.76824      -415.59924        24.20024
C22  25457144.95824      3236.70024        23.70024  25455260.46223      2449.85023        20.00023
C20  22564973.96625     -1563.70425        34.70025  22563075.08124     -1179.00024        25.50024
C19  22174750.91226      1343.03326        41.10026  22172860.72125      1011.72325        32.00025
C13  39123396.10924      -798.15024        28.50024                                                
E02  26085065.65726      -690.88326        36.10026  26083155.68025      -515.78025        34.60025
E04  25134952.30724      -296.15024        26.70024  25133040.53124      -222.05024        24.20024
E06  24565996.88725      1047.47825        31.20025  24564080.91323       783.50023        23.00023
E09  24878925.95124      2198.70024        23.70024  24877012.37525      1641.06325        29.80025
E10  26003178.24723     -1252.75023        20.40023                                                
E11  22962082.35423      -524.35023        22.80023                                                
E25  26294636.17525     -2502.42725        31.20025  26292726.19724     -1868.00024        29.20024
E34  28353365.84624      1795.45024        26.30024                                                
E36  24783072.40925      1043.60925        31.40025  24781163.33024       778.80024        28.60024
> 2026 03 21 15 18 36.4188807  0 27                      
G02  23049291.38026      2132.45726        38.20026                                                
G08  21079044.25427      1333.28327        42.50027  21076693.58124       995.93024        29.20024
G10  21492723.37026     -1651.87926        37.30026  21490365.50223     -1233.30023        23.00023
G18  24570259.93624     -2395.20024        24.50024                                                
G23  23463514.32024     -2817.95024        24.20024  23461168.74324     -2107.65024        23.60024
G27  20439925.40727      -849.52327        42.80027  20437572.03625      -634.19225        34.60025
G32  21142397.89525      1278.85125        30.50025  21140046.92324       955.29024        27.40024
R02  19976023.25926      2549.90026        39.90026
R15  24044947.40224     -2095.75024        24.20024
R24  19797699.21125       472.56125        33.50025
R23  23078591.59623     -2636.45023        21.10023
C60  38538875.16424       -27.70024        25.60024                                                
C48  21431270.11326      -384.56926        37.00026                                                
C35  23256790.03226      2251.28526        39.80026  23254900.14023      1696.00023        21.70023
C30  24790858.61824     -2563.55024        28.20024  24788970.22623     -1931.45023        19.00023
C20  22565273.75925     -1564.13825        33.10025  22563376.37224     -1179.00024        27.10024
C19  22174491.29226      1343.55526        40.90026  22172603.19925      1012.75225        32.30025
C13  39123550.50224      -794.90024        23.80024                                                
E02  26085197.56626      -688.58726        36.90026  26083286.38925      -514.18825        34.00025
E04  25135010.46724      -294.94424        23.60024                                                
E06  24565800.22325      1048.55325        30.00025  24563884.84924       782.98024        27.60024
E09  24878501.74423      2198.60023        22.00023  24876593.56525      1642.57725        29.90025
E10  26003413.58424     -1252.20124        23.90024  26001500.90823      -934.40023        17.60023
E25  26295107.14925     -2500.38325        31.60025  26293202.56725     -1867.19425        30.70025
E36  24782872.14725      1046.15825        33.90025  24780962.76924       781.32224        29.00024
E11                                                  22960267.71022      -393.50022        15.00022
C29                                                  21595389.09624      -414.49624        26.00024
> 2026 03 21 15 18 37.4188807  0 26                      
G02  23048889.65826      2133.45826        38.80026                                                
G08  21078790.33027      1333.59827        43.20027  21076438.45825       996.37225        30.20025
G10  21493038.45226     -1651.78526        38.30026  21490683.88224     -1233.09924        24.90024
G18  24570724.91424     -2396.15024        26.20024                                                
G23  23464043.45324     -2813.95024        26.70024  23461703.57324     -2105.89324        24.90024
G27  20440087.89427      -849.53927        42.90027  20437734.52326      -634.07626        35.80026
G32  21142166.45525      1279.43225        32.20025  21139804.99024       954.89724        25.50024
R02  19975550.18726      2549.70226        41.00026
R15  24045331.43623     -2095.95023        23.10023
R24  19797600.87925       472.54425        33.80025
C48  21431340.86426      -384.52426        35.60026                                                
C35  23256358.03126      2251.99626        40.70026  23254469.63824      1697.35424        25.40024
C30  24791347.88024     -2563.95024        28.50024  24789465.48323     -1934.35023        22.90023
C29  21597391.41024      -546.45024        25.40024  21595494.62324      -414.36924        25.90024
C20  22565575.65026     -1563.88026        36.30026  22563677.36424     -1178.15124        28.30024
C19  22174235.26926      1343.58126        40.10026  22172345.07825      1012.63825        33.20025
C13  39123717.18724      -797.10024        27.70024                                                
C08  40090894.42424      -909.55024        24.90024                                                
E02  26085325.87726      -688.24126        37.10026  26083417.09925      -513.63925        32.90025
E04  25135069.22623      -300.03623        23.40023  25133152.95323      -220.25023        20.10023
E06  24565599.66225      1047.78925        30.20025  24563685.48724       782.66024        25.50024
E09  24878090.12924      2199.07324        27.10024  24876176.25425      1642.15925        31.40025
E10  26003653.41824     -1252.11924        27.10024  26001741.64124      -935.15024        24.20024
E11  22962282.61523      -526.25023        22.70023                                                
E25  26295588.61524     -2499.75424        26.60024  26293678.33823     -1867.60023        23.00023
E36  24782676.68325      1046.96025        35.10025  24780764.60625       782.12625        29.90025
> 2026 03 21 15 18 38.4188807  0 28                      
G02  23048482.84026      2131.61226        35.90026                                                
G08  21078539.70327      1330.88827        43.20027  21076186.93225       993.74225        31.40025
G10  21493353.83326     -1654.11226        38.50026  21490999.86324     -1234.81924        28.30024
G18  24571167.40724     -2396.60024        24.30024                                                
G23  23464602.26624     -2819.95024        26.90024  23462241.40124     -2107.42524        29.00024
G27  20440250.08227      -852.40227        42.40027  20437896.11226      -636.44726        36.50026
G32  21141916.72825      1274.96625        33.40025  21139561.25924       952.71824        26.60024
R02  19975069.91926      2546.45726        40.30026
R15  24045702.57924     -2096.95024        24.50024
R24  19797530.12825       469.80325        33.50025
R23  23079600.09824     -2641.55024        24.60024
R08  23420916.21021     -4081.35021        11.40021
C48  21431417.31126      -387.50826        36.00026                                                
C35  23255926.33027      2249.56727        41.80027  23254036.13824      1695.37524        26.50024
C30  24791843.43725     -2569.11425        32.40025  24789957.44223     -1935.15023        23.30023
C29  21597488.84224      -551.88024        29.30024  21595600.74924      -415.55024        24.60024
C20  22565873.94326     -1566.78126        37.60026  22563978.35524     -1180.76624        28.90024
C19  22173977.44726      1340.73526        39.40026  22172086.95625      1010.53325        33.70025
C13  39123861.68724      -799.95024        28.30024                                                
C08  40091059.61024      -915.85024        23.70024                                                
E02  26085459.88426      -690.48426        38.80026  26083548.40825      -515.83625        35.20025
E04  25135122.88924      -295.67524        24.00024                                                
E06  24565404.19725      1045.01625        29.70025  24563487.92424       780.07924        24.60024
E09  24877673.41824      2196.46824        27.50024  24875757.74425      1640.13725        31.30025
E10  26003890.55424     -1253.19324        23.70024  26001976.67924      -937.19324        26.80024
E11  22962383.64524      -526.30024        26.80024                                                
E25  26296061.68824     -2502.55924        29.20024  26294153.20924     -1868.34324        25.20024
E36  24782476.72126      1044.46326        36.00026  24780565.84424       779.89024        28.50024
> 2026 03 21 15 18 39.4188807  0 28                      
G02  23048079.02025      2122.63125        31.00025                                                
