     3.04           OBSERVATION DATA    M                   RINEX VERSION / TYPE
GnssLogger          samsung 16          20260321 151452 UTC PGM / RUN BY / DATE
Google GnssLogger                                           MARKER NAME
Unknown                                                     MARKER NUMBER
Unknown             Unknown                                 OBSERVER / AGENCY
Unknown             GnssLogger          v3.1.1.2            REC # / TYPE / VERS
Unknown             Unknown                                 ANT # / TYPE
        0.0000        0.0000        0.0000                  ANTENNA: DELTA H/E/N
G    6 C1C D1C S1C C5Q D5Q S5Q                              SYS / # / OBS TYPES
R    3 C1C D1C S1C                                          SYS / # / OBS TYPES
C    6 C5Q D5Q S5Q C2I D2I S2I                              SYS / # / OBS TYPES
E    6 C1C D1C S1C C5Q D5Q S5Q                              SYS / # / OBS TYPES
  2026    03    21    15    14   52.0000000     GPS         TIME OF FIRST OBS
 5 R02 -4 R08  6 R15  0 R23  3 R24  2                       GLONASS SLOT / FRQ #
samsung SM-S906E (Android 16) HW Year: 2018 HW Model:       COMMENT

                                                            END OF HEADER
> 2026 03 21 15 14 52.4188789  0 12                      
G08  21137196.39624      1450.05024        25.30024  21134837.03023      1085.15023        18.30023
G10  21423222.68524     -1577.10024        27.30024                                                
G32  21199804.45425      1436.76825        31.00025  21197451.68323      1072.15023        22.70023
E09  24973853.63423      2296.45023        21.50023                                                
E11  22940360.19223      -477.75023        20.90023                                                
E36  24826316.77223      1045.75023        22.10023                                                
G23                                                  23341525.97123     -2076.45023        21.30023
G27                                                  20403554.18624      -524.70024        26.70024
E04                                                  25123403.90223      -110.65023        23.10023
E06                                                  24611123.64724       885.14724        25.60024
C20  22498278.43923     -1084.90023        22.90023
C29  21573600.98024      -329.50024        24.30024
> 2026 03 21 15 14 53.4188789  0 13                      
G08  21136922.38624      1452.55024        28.40024  21134568.71623      1083.75023        22.50023
G10  21423517.08125     -1579.67225        31.00025                                                
G32  21199528.64525      1435.80225        34.10025  21197179.17124      1073.45024        23.70024
C35  23350818.03823      1720.75023        18.50023  23352715.42523      2284.55023        21.60023
C29  21573684.62224      -330.04424        24.90024  21575585.30624      -438.80024        25.70024
C20  22498556.94623     -1084.80023        21.80023  22500456.73123     -1440.95023        22.30023
C19                                                  22233670.52324      1466.40024        25.90024
E06  24612807.28123      1181.45023        19.90023  24610895.80424       882.72124        26.90024
E09  24973422.53223      2297.10023        21.20023                                                
E11  22940454.62724      -478.80924        24.80024                                                
E36  24826126.10423      1045.35023        21.60023                                                
G27                                                  20403686.69524      -525.54724        27.70024
E04                                                  25123435.38123      -111.20023        23.40023
> 2026 03 21 15 14 54.4188789  0 14                      
G08  21136643.87924      1456.85024        27.60024                                                
G10  21423821.67025     -1574.52625        32.00025                                                
G27  20406147.39123      -706.10023        19.80023  20403821.00224      -521.07924        29.10024
G32  21199255.83426      1440.77026        35.50026  21196903.36223      1077.05023        22.20023
C35                                                  23352271.13224      2290.10024        27.70024
C29  21573765.86624      -325.59124        26.10024  21575655.15825      -433.06625        29.80025
C20  22498833.65524     -1080.64724        24.80024  22500734.63924     -1432.90024        27.80024
C19  22231516.51422      1100.55022        17.10022  22233400.41024      1469.55024        24.90024
E06  24612580.93823      1188.30023        20.10023  24610671.85924       886.80524        27.80024
E09  24972986.33423      2300.75023        20.70023                                                
E11  22940547.86224      -472.66124        26.50024                                                
G18                                                  24468476.39922     -1723.10022        17.30022
E04                                                  25123463.56123      -106.55023        23.00023
E36                                                  24824013.16623       784.05023        19.90023
> 2026 03 21 15 14 55.4188789  0 13                      
G08  21136386.35724      1451.80024        26.00024  21134011.40123      1085.85023        20.60023
G10  21424125.06025     -1577.30925        32.50025                                                
G32  21198982.12325      1437.63525        33.90025  21196626.65423      1073.40023        22.40023
C35  23349942.64423      1723.50023        20.80023  23351829.53824      2285.65024        24.00024
C29  21573850.70724      -328.05724        23.70024  21575746.89424      -433.40024        28.50024
C20  22499111.86224     -1082.78424        24.40024  22500998.75624     -1435.50024        26.90024
C19                                                  22233110.51123      1466.85023        23.10023
E11  22940640.49824      -475.18724        24.40024                                                
G23                                                  23343113.67223     -2073.15023        17.80023
G27                                                  20403955.00924      -523.56224        29.20024
E06                                                  24610444.31724       884.72424        26.90024
E10                                                  25949863.35622      -889.60022        16.10022
E36                                                  24823813.50523       783.20023        21.80023
> 2026 03 21 15 14 56.4188789  0 13                      
G08  21136104.25324      1450.45024        24.80024  21133732.89423      1084.45023        21.30023
G10  21424420.65525     -1576.63225        30.30025                                                
G32  21198714.10925      1438.09325        32.90025  21196353.24323      1073.55023        22.20023
C35  23349502.54923      1722.35023        21.00023  23351385.84524      2285.75024        23.60024
C29  21573934.94924      -327.25824        24.80024  21575829.33724      -432.60024        27.00024
C20  22499387.37124     -1081.92124        23.80024  22501280.56124     -1434.65024        25.70024
C19  22230952.00523      1103.05023        18.20023  22232830.20523      1463.15023        23.10023
E06  24612125.25323      1185.80023        19.00023  24610219.77224       885.20124        27.30024
E09  24972107.04323      2299.35023        19.30023                                                
E11  22940728.33723      -475.70023        22.40023                                                
E36  24825528.61722      1049.60022        17.30022  24823611.44423       782.85023        22.40023
G27                                                  20404088.11725      -523.08725        30.60025
E04                                                  25123518.12323      -109.75023        20.00023
> 2026 03 21 15 14 57.4188789  0 11                      
G08  21135803.26124      1448.90024        27.90024                                                
G10  21424718.34924     -1579.30024        28.80024  21422371.27422     -1179.25022        15.80022
G27  20406580.89124      -705.15024        23.80024  20404221.82425      -526.48825        31.40025
G32  21198441.29724      1433.00024        27.90024  21196082.53023      1070.60023        21.50023
C35  23349063.35323      1720.30023        21.60023  23350952.04524      2283.45024        27.20024
C29  21574017.99123      -328.75023        22.20023  21575909.98125      -437.53025        30.80025
C20  22499664.97923     -1085.35023        21.20023  22501553.97124     -1437.50024        26.30024
C19                                                  22232541.50523      1463.25023        21.80023
E06  24611914.19924      1181.98524        24.40024  24609995.52824       880.30524        25.30024
E36  24825320.26124      1047.29724        28.10024  24823410.88323       780.60023        22.20023
E02                                                  26054584.46023      -458.75023        21.70023
> 2026 03 21 15 14 58.4188789  0 16                      
G08  21135539.14424      1448.80024        26.70024  21133184.27424      1082.75024        23.50024
G10  21425015.44324     -1575.05024        29.10024                                                
G23  23347052.34524     -2770.15024        24.10024                                                
G27  20406711.00124      -704.90024        28.50024  20404354.93224      -526.20024        24.70024
G32  21198157.09425      1435.90725        30.10025                                                
R02  20082796.64224      2717.35024        24.10024
C35                                                  23350516.14724      2284.30024        24.60024
C29                                                  21575989.42624      -437.50024        26.70024
C20                                                  22501835.17724     -1436.70024        26.80024
E04  25125484.16224      -151.90024        25.00024                                                
E06  24611675.56523      1184.25023        21.80023  24609771.28323       882.70023        22.60023
E09  24971223.25523      2295.85023        19.70023                                                
E11  22940902.21723      -476.40023        20.30023                                                
E36  24825112.50523      1049.45023        20.00023                                                
G18                                                  24470234.08222     -1723.65022        16.50022
C19  22230385.09823      1099.45023        18.70023                                                
> 2026 03 21 15 14 59.4188789  0 17                      
G08  21135255.24024      1446.65024        28.50024  21132908.76523      1080.05023        21.50023
G10  21425320.63226     -1583.34426        41.10026  21422967.56124     -1182.80024        24.10024
G23  23347569.78725     -2779.07525        30.10025  23345227.20923     -2076.10023        20.30023
G27  20406841.41124      -709.50024        26.40024  20404491.63724      -525.75024        23.50024
G32  21197881.58525      1429.35225        30.30025  21195543.80323      1067.85023        20.20023
R02  20082267.80824      2713.60024        25.40024
C35  23348189.45823      1720.85023        21.70023  23350073.35425      2281.24925        31.90025
C29                                                  21576077.56524      -442.15024        28.90024
C20  22500219.89524     -1087.10024        24.90024  22502104.69026     -1443.51926        36.20026
C19                                                  22232000.37924      1459.90024        25.10024
C13                                                  39090356.48224      -773.80024        25.50024
E04  25125518.93824      -155.81424        24.70024  25123606.26223      -111.05023        17.50023
E06  24611464.81024      1175.45324        24.60024  24609550.03623       879.60023        22.80023
E09  24970799.94824      2302.58324        23.50024  24968883.97423      1712.70023        17.50023
E11  22940989.15724      -479.15624        27.10024  22939080.37822      -359.20022        15.70022
E36  24824915.84125      1046.86525        31.00025                                                
E10                                                  25950774.72523      -890.20023        18.10023
> 2026 03 21 15 15 00.4188789  0 18                      
G08  21134985.12725      1442.75325        33.70025  21132631.75624      1077.26124        26.00024
G10  21425623.12326     -1584.72826        39.70026  21423269.15225     -1183.55025        31.80025
G23  23348116.60824     -2781.50024        27.10024  23345753.64423     -2076.95023        21.10023
G27  20406979.91525      -712.63225        32.80025  20404626.54424      -532.60224        25.40024
G32  21197605.47624      1425.80024        25.70024  21195272.49123      1065.60023        22.30023
R02  20081759.66024      2710.20024        23.70024
C35  23347754.15923      1715.75023        22.10023  23349637.45524      2277.79424        29.30024
C29  21574274.31423      -335.85023        19.70023  21576166.90325      -444.96925        31.50025
C20  22500493.60525     -1089.46625        29.60025  22502386.19526     -1446.30326        36.90026
C19  22229821.48823      1096.35023        19.90023  22231703.28524      1453.35024        24.20024
C13                                                  39090509.97624      -780.60024        28.40024
E02  26056840.39825      -624.85025        29.50025  26054937.01523      -463.05023        19.90023
E04  25125537.52524      -157.36024        24.70024  25123634.14324      -116.20024        23.80024
E06  24611238.46724      1176.48124        25.20024                                                
E09  24970366.44824      2290.35024        24.90024                                                
E10  25952908.94824     -1197.64624        26.80024  25951003.46724      -892.29124        24.30024
E11  22941089.28725      -483.29125        32.50025  22939170.61624      -360.14224        27.50024
E36  24824720.67624      1043.30924        29.20024  24822809.50023       779.40023        22.40023
> 2026 03 21 15 15 01.4188789  0 19                      
G08  21134710.21825      1443.03325        33.20025  21132356.54724      1076.27024        24.60024
G10  21425922.01626     -1581.80326        38.50026  21423570.14425     -1181.13125        32.80025
G23  23348624.45724     -2775.35024        26.50024  23346281.87823     -2077.45023        21.80023
G27  20407113.32225      -713.36525        33.60025  20404761.45124      -532.45024        27.30024
G32  21197350.35325      1430.15025        29.50025                                                
R02  20081222.43224      2712.50024        27.70024
R23  22974841.42122     -2515.25022        15.90022
C35  23347310.16724      1718.04224        27.10024  23349199.15925      2279.63325        31.80025
C29  21574357.65624      -334.33724        23.80024  21576248.14725      -443.53425        30.40025
C20  22500772.71225     -1087.40325        29.90025  22502662.60426     -1442.90326        37.60026
C19  22229539.98324      1094.15224        24.70024  22231436.47025      1453.27725        30.20025
C13                                                  39090655.37524      -774.10024        26.00024
E02  26056960.91424      -626.08424        27.00024  26055058.43123      -465.85023        22.70023
E04  25125576.49823      -155.30023        22.70023  25123666.22123      -114.55023        22.10023
E06  24611007.62724      1179.95024        24.40024  24609098.84823       877.15023        19.60023
E09  24969926.35323      2289.85023        22.70023                                                
E10  25953132.89323     -1193.55023        23.10023  25951228.61123      -891.80023        23.20023
E11  22941179.82525      -478.40525        29.90025  22939263.55124      -355.15024        23.60024
E36  24824518.91625      1043.30625        29.50025  24822608.33924       779.30024        24.40024
> 2026 03 21 15 15 02.4188789  0 19                      
G08  21134438.00626      1445.61426        36.70026  21132083.73624      1073.63824        28.30024
G10  21426232.60126     -1576.95226        38.10026  21423871.13624     -1177.79324        29.40024
G23  23349164.98224     -2782.55024        25.70024                                                
G27  20407248.82925      -716.48025        33.70025  20404897.25724      -531.85024        28.00024
G32  21197077.84125      1428.66225        32.00025  21194727.46823      1066.60023        20.50023
R02  20080704.39124      2714.40024        28.50024
R08  23256763.55122     -4018.20022        16.90022
C35  23346875.16823      1714.50023        21.70023  23348762.96125      2278.82925        31.70025
C29  21574442.49724      -333.38124        26.10024  21576333.58825      -443.62725        33.30025
C20  22501048.82124     -1091.13924        28.40024  22502942.01025     -1437.45125        34.80025
C19  22229262.97424      1091.70024        25.80024  22231150.46825      1450.27125        31.40025
C13                                                  39090804.37224      -760.75024        27.40024
E02  26057082.33024      -629.70024        28.50024  26055171.15324      -472.76524        27.60024
E04  25125605.87824      -154.15324        29.00024  25123689.90424      -117.47724        26.10024
E06  24610782.78324      1179.44224        24.90024  24608874.00423       894.55023        22.80023
E09  24969488.95523      2289.45023        19.50023                                                
E11  22941264.36624      -482.02224        27.30024  22939354.98823      -357.50023        23.20023
E36  24824318.35524      1062.85024        24.50024  24822412.87424       773.59924        25.10024
E10                                                  25951457.65324      -893.06824        25.30024
> 2026 03 21 15 15 03.4188789  0 17                      
G08  21134159.49926      1443.29326        36.30026  21131805.52824      1083.35024        25.50024
G10  21426522.50025     -1577.42625        33.00025  21424171.22824     -1178.89024        26.20024
G27  20407377.73925      -704.70025        34.70025  20405031.56424      -523.83724        29.00024
G32  21196802.33225      1438.75025        32.70025  21194453.15823      1072.65023        23.20023
R02  20080234.01624      2716.90024        27.90024
C35  23346435.37224      1720.36924        24.70024  23348318.66825      2291.41825        32.60025
C29  21574527.33924      -323.94724        26.80024  21576410.33524      -430.20024        27.60024
C20  22501323.73123     -1083.05023        21.10023  22503216.62024     -1435.05024        26.90024
C19  22228983.56824      1103.23524        25.50024  22230874.65925      1464.90025        32.60025
C13                                                  39090946.17424      -769.45024        26.90024
E02  26057197.45124      -615.10024        26.50024  26055288.07224      -461.25024        28.30024
E04  25125628.96223      -148.65023        22.30023                                                
E06  24610566.63224      1186.80024        24.60024  24608648.56024       889.18824        25.30024
E09  24969056.35524      2306.64024        23.90024  24967134.38623      1723.70023        18.70023
E10  25953591.87523     -1198.05023        18.00023                                                
E11  22941345.01024      -466.95024        24.30024  22939445.82523      -350.70023        21.60023
E36  24824124.68925      1046.25925        30.40025  24822210.81424       785.60024        26.90024
> 2026 03 21 15 15 04.4188789  0 19                      
G08  21133887.88725      1442.94825        33.70025  21131534.81624      1065.36324        24.40024
G10  21426831.88626     -1581.72826        36.00026  21424470.42124     -1176.90024        28.70024
G23  23350219.95223     -2774.60023        21.50023                                                
G27  20407517.14325      -709.62525        30.60025  20405166.47024      -537.30024        24.80024
G32  21196533.41826      1433.30026        36.80026  21194179.74824      1070.60024        27.20024
R02  20079691.99124      2711.71224        29.10024
C35  23345999.47424      1712.80924        27.40024  23347882.17125      2275.25025        34.30025
C30                                                  24688004.22324     -2473.50024        28.70024
C29  21574611.28024      -328.70024        27.20024  21576504.47025      -438.55025        29.80025
C20  22501601.03924     -1080.27524        28.40024  22503492.42924     -1442.90024        28.60024
C19  22228705.96023      1097.90023        23.00023  22230599.74924      1453.10024        27.20024
C13                                                  39091091.27424      -774.05024        23.60024
E02  26057314.96924      -632.57824        23.90024  26055407.09024      -466.05024        23.60024
E04  25125647.54923      -153.10023        20.70023  25123746.26523      -118.15023        20.30023
E06  24610332.49424      1186.30024        24.70024  24608427.01324       876.75024        27.00024
E09  24968609.66424      2293.64424        25.10024  24966700.58624      1712.25024        28.70024
E11  22941443.34224      -464.41224        26.70024                                                
E36  24823920.53024      1041.66024        28.30024  24822013.85023       772.05023        22.10023
E10                                                  25951923.83023      -899.95023        19.00023
> 2026 03 21 15 15 05.4188789  0 21                      
G08  21133611.47826      1451.20026        37.10026  21131261.10524      1080.55024        25.10024
G10  21427125.68326     -1573.62626        35.80026  21424772.91125     -1174.41325        31.10025
G27  20407657.14625      -704.88325        35.40025  20405302.27624      -526.61024        27.30024
G32  21196257.60926      1438.60526        37.80026  21193902.73925      1073.88425        29.60025
R02  20079183.54325      2718.72425        32.40025
R08  23258921.75723     -4011.95023        18.50023
C60                                                  38538946.71524        21.85024        26.30024
C35  23345557.88025      1721.65425        31.50025  23347446.87226      2286.79326        37.90026
C30  24686593.10022     -1861.35022        13.80022  24688455.11124     -2462.20024        23.60024
C29  21574696.12224      -326.52024        28.30024  21576588.41225      -432.81325        34.20025
C20  22501878.34724     -1080.39324        27.70024  22503764.04125     -1437.13925        29.90025
C19  22228423.55625      1101.33725        29.70025  22230312.54825      1463.35025        31.80025
C13                                                  39091234.87423      -767.90023        22.20023
C05                                                  37535925.69224        57.95024        26.30024
E02  26057441.78124      -611.00024        24.60024  26055527.60724      -458.85024        24.80024
E04  25125690.71924      -140.60824        25.50024                                                
E06  24610110.64824      1183.83824        24.30024  24608199.47124       887.34024        29.20024
E09  24968173.16624      2301.58224        28.80024  24966264.98724      1718.54024        29.10024
E10  25954052.95623     -1182.25023        18.60023                                                
E11  22941543.17323      -468.20023        22.80023  22939623.00223      -353.75023        21.10023
E36  24823726.26526      1051.13226        38.10026  24821813.58925       784.69925        29.80025
> 2026 03 21 15 15 06.4188789  0 16                      
G08  21133332.97126      1446.71126        39.70026  21130982.29825      1080.20625        31.80025
G10  21427418.88025     -1574.97025        34.30025  21425070.90524     -1175.87124        29.40024
G27  20407794.45125      -707.42025        35.00025  20405436.88324      -527.95024        28.20024
G32  21195987.19624      1432.20024        28.60024  21193632.62624      1070.90024        23.90024
R02  20078684.68925      2714.19525        30.20025
C35  23345119.28324      1724.04524        25.80024  23347009.47525      2284.93425        34.80025
C29  21574780.96324      -326.73924        23.50024  21576671.45425      -434.18725        30.80025
C20  22502153.85624     -1081.87324        24.20024  22504042.84825     -1436.20425        31.10025
C19  22228145.04824      1099.15024        28.00024  22230034.04125      1459.15325        33.40025
E02  26057558.10124      -621.87824        29.20024  26055645.72525      -463.87525        35.30025
E04  25125716.20223      -143.70023        22.60023  25123800.22823      -108.15023        19.50023
E06  24609891.20023      1184.75023        22.40023  24607973.72724       885.09524        24.70024
E09  24967747.16124      2297.05024        25.00024  24965826.69124      1715.66624        25.30024
E11  22941620.81923      -471.55023        22.00023                                                
E36  24823525.70425      1050.12825        33.50025  24821617.52524       788.00124        26.90024
E25                                                  26192373.57022     -1853.75022        15.30022
> 2026 03 21 15 15 07.4188789  0 16                      
G08  21133055.06325      1452.02025        32.20025  21130707.68824      1082.91024        29.20024
G10  21427729.16525     -1573.36325        33.10025  21425371.59724     -1174.61424        27.80024
G27  20407921.86325      -705.30025        31.50025  20405570.89025      -527.20025        29.60025
G32  21195704.79224      1434.20024        26.30024                                                
R02  20078185.83425      2714.31625        29.60025
C35  23344680.38724      1725.55924        29.30024  23346568.18025      2288.63625        34.00025
C29  21574861.00823      -327.70023        22.70023  21576747.60124      -434.35024        26.70024
C20  22502429.96523     -1082.80023        23.20023  22504318.35824     -1436.55024        27.00024
C19  22227863.54324      1102.27824        26.20024  22229745.34124      1460.65024        28.00024
E02  26057675.91925      -615.97625        31.70025  26055765.64225      -459.50325        31.60025
E06  24609657.06223      1185.45023        22.80023  24607745.88523       883.80023        20.90023
E09  24967306.16723      2296.80023        21.00023  24965392.29223      1715.30023        21.90023
E11  22941719.45123      -469.80023        20.70023                                                
E25  26194758.71924     -2479.37424        25.00024  26192839.44824     -1852.33824        24.90024
E36  24823326.64225      1054.25825        30.80025  24821414.86524       787.41124        28.50024
G23                                                  23349455.78122     -2072.70022        15.70022
> 2026 03 21 15 15 08.4188789  0 14                      
G08  21132782.55226      1442.81926        36.00026  21130432.77925      1075.54725        31.80025
G10  21428026.55926     -1581.67326        36.00026  21425672.88824     -1181.36924        29.00024
G27  20408057.66926      -714.45026        36.60026  20405706.39624      -532.50024        28.80024
G32  21195434.07925      1425.04525        30.50025  21193092.70023      1064.15023        21.60023
R02  20077677.38625      2703.96225        31.70025
C35  23344242.39024      1718.23124        26.70024  23346128.08525      2281.91525        34.80025
C29                                                  21576838.43924      -440.95024        26.60024
C20  22502703.97524     -1087.82924        26.20024  22504595.36624     -1447.45024        27.50024
C19  22227582.93824      1093.11824        26.50024  22229475.22825      1454.30925        33.50025
E02  26057794.63725      -623.28725        30.30025  26055882.56125      -465.45925        33.40025
E09  24966872.66723      2288.75023        20.50023                                                
E11  22941812.98623      -476.60023        20.00023  22939895.51423      -354.60023        18.20023
E25  26195218.60124     -2480.29124        27.00024  26193313.71924     -1859.10224        25.70024
E36  24823124.58125      1046.13425        30.00025  24821214.00424       781.75024        29.00024
> 2026 03 21 15 15 09.4188789  0 16                      
G08  21132513.33825      1444.65325        33.90025  21130158.16925      1078.03425        30.70025
G10  21428332.34725     -1579.90125        32.30025  21425968.78324     -1180.16024        24.90024
G27  20408191.67625      -715.28325        35.10025  20405841.30325      -534.35725        31.00025
G32  21195172.06124      1424.95024        28.70024  21192821.38823      1062.30023        21.60023
R02  20077162.04325      2703.90825        34.20025
R15  23963538.96022     -2024.05022        17.10022
C35  23343804.69324      1719.67324        24.70024  23345692.78625      2284.89325        30.90025
C29  21575035.48723      -335.20023        23.00023  21576929.27624      -442.20024        25.90024
C20  22502980.38424     -1088.41524        28.80024  22504872.97425     -1443.97625        31.50025
C19  22227305.33024      1093.49724        27.90024  22229193.12325      1450.29025        35.30025
E02  26057912.15624      -621.43824        28.10024  26055998.58125      -464.37325        30.60025
E06  24609223.56223      1176.00023        21.70023  24607304.59123       877.55023        23.00023
E09  24966445.46223      2284.55023        23.00023  24964520.79523      1707.70023        20.80023
E11  22941902.92424      -470.88324        25.70024  22939984.55224      -355.93724        24.70024
E25  26195697.96924     -2489.45024        24.00024  26193786.19224     -1860.33924        24.30024
E36  24822925.51924      1050.54924        29.40024  24821014.94224       783.84424        25.70024
> 2026 03 21 15 15 10.4188789  0 16                      
G08  21132231.53425      1436.31425        32.70025  21129884.45825      1073.52025        32.60025
G10  21428625.54425     -1586.69625        32.50025  21426275.77124     -1185.52724        28.20024
G27  20408325.08425      -720.37025        31.40025  20405979.20824      -539.17824        29.40024
G32  21194911.54124      1417.15024        28.50024  21192545.57923      1059.70023        22.20023
R02  20076651.19725      2697.26825        33.10025
C35  23343363.99824      1715.93524        27.00024  23345255.08926      2278.54626        38.30026
C29  21575119.12923      -339.00023        23.00023  21577004.52424      -450.65024        28.30024
C20  22503260.99024     -1094.01824        25.20024  22505155.97824     -1449.80024        27.50024
C19  22227024.12424      1088.08824        25.10024  22228916.41425      1443.35025        32.90025
E02  26058026.97625      -628.44925        31.80025  26056120.29625      -469.08425        34.20025
E04  25125838.81722      -155.10022        16.50022                                                
E06  24608981.63023      1171.05023        22.70023  24607080.04623       873.05023        20.90023
E09  24965994.87423      2283.60023        20.60023                                                
E11  22941988.06524      -485.30024        25.80024                                                
E25  26196169.24224     -2492.25024        24.90024  26194261.36324     -1863.92924        24.30024
E36  24822726.45725      1042.11925        34.20025  24820817.07924       780.64124        25.50024
> 2026 03 21 15 15 11.4188789  0 16                      
G08  21131964.71826      1440.32926        40.00026  21129608.94925      1075.39125        33.70025
G10  21428935.53025     -1582.52625        32.80025  21426574.06425     -1183.20925        30.40025
G23  23353916.39323     -2780.85023        19.10023  23351567.81922     -2078.40022        17.10022
G27  20408467.78526      -719.62726        37.70026  20406115.91324      -537.75024        25.50024
G32  21194622.84124      1422.25024        29.10024                                                
R02  20076133.15525      2703.25025        30.50025
C35  23342928.10025      1720.15025        29.90025  23344815.89326      2281.60426        40.90026
C29  21575209.06723      -336.25023        21.30023  21577098.05925      -447.78325        30.50025
C20  22503538.59724     -1083.25824        25.90024  22505428.78925     -1448.70625        30.60025
C19  22226747.41623      1091.65023        21.80023  22228636.40825      1449.75025        31.70025
E02  26058151.69025      -624.96625        32.40025  26056237.51524      -466.55724        29.30024
E04  25125860.10223      -156.05023        20.60023                                                
E11  22942086.99724      -488.07524        26.00024  22940167.72523      -359.95023        21.50023
E25  26196645.31324     -2489.19824        24.90024  26194739.23224     -1861.42024        24.80024
E36  24822529.19426      1046.78126        37.00026  24820616.81824       775.82424        25.40024
E09                                                  24963655.89423      1707.30023        20.20023
> 2026 03 21 15 15 12.4188789  0 17                      
G08  21131688.31026      1437.87926        40.10026  21129336.13825      1074.05125        35.40025
G10  21429238.32025     -1584.59125        32.80025  21426878.65424     -1183.35824        26.30024
G23  23354441.33023     -2782.35023        21.20023                                                
G27  20408603.59126      -721.92826        36.70026  20406254.11724      -539.39924        24.90024
G32  21194361.42224      1422.50024        28.90024  21192007.75123      1057.25023        21.70023
R02  20075639.39725      2697.90025        32.90025
R23  22979929.79922     -2510.10022        14.30022
C35  23342489.80424      1717.05024        26.80024  23344375.19826      2279.69226        38.10026
C29  21575290.01123      -336.95023        22.00023  21577183.20025      -448.99425        30.30025
C20  22503819.80323     -1092.90023        22.60023  22505710.29424     -1451.55024        28.90024
C19  22226472.80624      1088.25224        24.60024  22228359.70026      1444.43626        37.90026
E02  26058269.50825      -626.35725        34.10025  26056356.83325      -467.98825        30.30025
E06  24608556.52423      1173.35023        20.70023  24606644.14823       875.15023        19.00023
E09  24965128.77423      2287.45023        22.10023                                                
E11  22942170.63923      -481.40023        22.70023  22940262.16023      -357.50023        22.10023
E25  26197122.58225     -2495.45425        31.20025  26195210.80625     -1863.48025        29.80025
E36  24822328.03326      1045.50326        36.60026  24820417.75524       780.61324        26.80024
> 2026 03 21 15 15 13.4188789  0 18                      
G02  23130190.87525      2125.81125        31.90025                                                
G08  21131420.29525      1439.70325        34.70025  21129063.62725      1076.44725        30.10025
G10  21429530.91726     -1583.59726        36.10026  21427178.14625     -1182.59225        31.00025
G27  20408742.99426      -719.86926        40.20026  20406390.52325      -537.42625        34.10025
G32  21194101.50224      1420.20024        29.20024  21191742.43523      1059.65023        23.00023
R02  20075124.35425      2697.95725        34.30025
C35  23342051.20724      1719.63924        28.00024  23343940.19926      2280.61426        35.50026
C29                                                  21577269.84025      -445.91525        31.00025
C20  22504095.01224     -1092.06624        24.80024  22505985.20425     -1449.53225        32.20025
C19  22226193.69924      1088.87924        29.20024  22228083.59126      1445.66926        35.80026
E02  26058387.32725      -625.17625        32.90025  26056474.65124      -473.59524        25.70024
E04  25125932.65223      -157.20023        19.20023  25124021.47522      -118.65022        16.50022
E06  24608329.88123      1175.34323        23.40023  24606417.50524       873.66524        24.50024
E09  24964711.16324      2286.61324        24.50024  24962781.09923      1707.55023        19.40023
E10  25955875.69422     -1192.95022        15.80022  25953962.11922      -892.55022        14.50022
E25  26197593.85625     -2493.75325        33.70025  26195685.07824     -1861.98824        27.60024
E36  24822131.36925      1047.81725        33.70025  24820219.29324       782.54424        28.40024
E11                                                  22940350.59923      -359.40023        20.70023
> 2026 03 21 15 15 14.4188789  0 20                      
G02  23129788.25425      2126.64625        34.60025                                                
G08  21131140.28925      1439.15925        34.80025  21128788.41725      1075.06425        32.60025
G10  21429834.60726     -1583.06726        36.20026  21427478.23825     -1183.36925        29.80025
G23  23355509.79023     -2777.90023        22.80023                                                
G27  20408877.00126      -719.97926        36.80026  20406528.12824      -538.95024        28.80024
G32  21193819.99726      1420.85126        36.70026  21191469.02424      1063.85024        23.60024
R02  20074630.29626      2696.57326        36.50026
C35  23341612.01124      1719.58224        26.60024  23343501.90325      2280.36025        35.00025
C29  21575464.79023      -336.95023        21.50023  21577354.98125      -447.65125        31.50025
C20  22504375.61823     -1091.60023        23.20023  22506264.01126     -1448.45026        36.10026
C19  22225916.99124      1088.86024        27.20024  22227805.38426      1445.90526        38.70026
C13                                                  39092593.83323      -773.35023        17.90023
E02  26058502.44724      -624.55024        28.60024  26056595.76724      -466.85024        25.90024
E04  25125954.83624      -160.13924        28.60024                                                
E06  24608100.53924      1169.62124        24.00024  24606191.76123       874.90023        22.90023
E09  24964259.97524      2279.58824        25.20024  24962352.69623      1709.50023        21.60023
E10  25956079.55323     -1198.65023        21.20023                                                
E11  22942360.40724      -480.15024        26.30024  22940441.13623      -357.05023        22.60023
E25  26198066.02924     -2494.76924        28.90024  26196161.44824     -1862.81624        29.30024
E36  24821932.00725      1045.43225        30.00025  24820019.93124       782.11824        25.80024
> 2026 03 21 15 15 15.4188789  0 22                      
G02  23129394.62625      2123.85625        30.60025                                                
G08  21130864.18025      1436.14925        33.90025  21128515.00625      1073.47325        30.10025
G10  21430136.49825     -1587.57225        33.30025  21427780.72924     -1183.20024        26.60024
G16  24160906.72524     -2967.35024        25.00024                                                
G23  23356042.82124     -2780.45024        24.50024  23353674.46123     -2075.40023        18.50023
G27  20409016.70526      -723.12826        38.80026  20406664.83324      -544.96924        28.20024
G32  21193554.38126      1417.68226        35.70026  21191196.21324      1058.00024        25.30024
R02  20074113.75326      2695.21526        36.50026
R15  23965859.35422     -2032.40022        16.20022
C35  23341174.01423      1720.25023        21.50023  23343062.40725      2278.52525        31.10025
C29  21575549.93124      -346.68624        24.00024  21577447.91725      -447.89025        30.80025
C20  22504652.02724     -1092.94624        28.50024  22506534.12424     -1453.26724        29.30024
C19  22225639.68325      1088.43125        31.50025  22227528.37526      1444.46826        38.20026
C13                                                  39092726.94124      -774.60024        24.60024
E02  26058624.46325      -627.33725        30.80025  26056715.68424      -467.37624        28.80024
E04  25125983.91624      -155.16024        24.30024  25124073.03923      -117.00023        21.50023
E06  24607884.98924      1173.14324        24.00024                                                
E09  24963823.47824      2278.15924        29.30024  24961913.20024      1705.55024        24.60024
E10  25956322.98523     -1192.45023        21.50023  25954412.70723      -896.55023        18.60023
E11  22942457.84023      -482.80023        23.00023  22940532.57323      -361.55023        23.20023
E25  26198551.39324     -2497.35024        27.10024  26196633.32123     -1861.40023        23.30023
E36  24821732.34525      1046.24525        34.00025  24819819.96924       781.28524        27.30024
> 2026 03 21 15 15 16.4188789  0 21                      
G02  23128967.72224      2129.35024        29.00024                                                
G08  21130600.96225      1436.30025        30.50025  21128243.99424      1074.00024        24.70024
G10  21430445.88425     -1585.85025        29.90025  21428082.62024     -1183.20724        24.40024
G16  24161480.22823     -2956.10023        23.10023                                                
G23  23356548.57124     -2778.05024        28.60024  23354202.39524     -2074.50024        27.50024
G27  20409152.21126      -721.22126        37.90026  20406802.43825      -539.50025        29.90025
G32  21193285.46725      1418.40025        31.90025  21190928.49824      1058.15024        26.00024
R02  20073626.89026      2696.53026        36.40026
C35  23340738.11623      1719.50023        21.40023  23342634.00424      2282.40024        27.00024
C29  21575637.17023      -339.65023        20.90023  21577533.95724      -445.30024        28.10024
C20  22504929.93424     -1093.00024        25.40024  22506818.32725     -1449.57725        31.70025
C19  22225361.47525      1089.45825        30.00025  22227249.86826      1445.87926        39.40026
C13                                                  39092874.13924      -776.10024        24.70024
E02  26058743.48024      -627.41524        27.90024  26056835.60124      -466.85024        27.10024
E04  25126015.99423      -157.15023        23.20023                                                
E06  24607660.74423      1169.40023        22.20023  24605747.76823       875.00023        20.00023
E09  24963392.07623      2284.85023        22.60023  24961480.89923      1704.80023        21.20023
E10  25956543.93223     -1194.75023        22.20023                                                
E11  22942542.68124      -483.33124        26.50024  22940624.90924      -358.62524        25.20024
E25  26199022.66724     -2493.10524        28.10024  26197110.89124     -1860.20024        25.00024
E36  24821530.58524      1044.10024        26.00024  24819618.80823       781.65023        21.50023
> 2026 03 21 15 15 17.4188789  0 24                      
G02  23128589.68424      2124.50024        27.80024                                                
G08  21130320.95625      1435.20025        30.40025  21127969.08424      1070.70024        28.00024
G10  21430740.88025     -1589.14425        30.80025  21428383.01224     -1184.43024        27.10024
G16  24162063.62424     -2956.45024        23.50024                                                
G23  23357084.00025     -2781.41225        32.60025  23354730.62924     -2076.28224        24.80024
G27  20409294.01326      -724.33026        38.30026  20406939.44325      -540.77225        31.50025
G32  21193015.35425      1416.95025        33.30025  21190662.28324      1056.45024        24.70024
R02  20073114.84526      2694.97026        36.20026
R15  23966592.64623     -2030.55023        22.20023
R08  23267948.80721     -4012.00021        11.30021
C35  23340303.71724      1718.75924        24.40024  23342190.01125      2280.35725        30.00025
C29  21575721.71223      -339.95023        22.30023  21577614.60124      -450.40024        29.20024
C20  22505209.04124     -1093.53624        25.40024  22507101.93125     -1453.25225        32.90025
C19  22225084.16725      1087.43525        30.10025  22226971.66126      1442.68226        38.80026
C13                                                  39093025.83424      -779.55024        27.30024
E02  26058861.89825      -632.27525        30.50025  26056953.42025      -469.64025        30.50025
E04  25126046.87324      -169.31524        25.30024  25124133.59723      -122.20023        23.10023
E06  24607440.99624      1163.97024        25.50024  24605527.42124       870.65024        23.50024
E09  24962954.07923      2284.95023        22.80023  24961050.69723      1704.50023        20.80023
E10  25956767.27723     -1199.25023        20.90023  25954861.79623      -895.45023        21.50023
E11  22942632.91924      -484.00024        28.80024  22940713.04823      -360.15023        23.20023
E25  26199492.14224     -2487.14024        29.20024  26197584.26324     -1862.55024        27.70024
E34  28418989.41623      1763.00023        20.00023  28417092.92922      1316.30022        16.40022
E36  24821339.31724      1047.39924        23.90024  24819426.64124       778.90024        23.70024
> 2026 03 21 15 15 18.4188789  0 22                      
G02  23128169.37524      2125.90024        28.20024                                                
G08  21130048.14525      1440.31925        31.00025  21127696.27324      1074.05024        27.20024
G10  21431040.97225     -1583.55625        35.30025  21428684.90324     -1182.60024        26.40024
G16  24162604.15024     -2959.00024        24.30024                                                
G23  23357591.84924     -2778.55024        24.30024  23355260.06323     -2075.35023        21.10023
G27  20409430.41825      -719.53225        34.60025  20407077.64724      -529.12124        27.90024
G32  21192742.24326      1419.71026        37.00026  21190388.87224      1060.80024        23.80024
R02  20072609.99425      2702.66625        31.20025
R15  23966990.77124     -2031.55024        23.70024
C35  23339862.12323      1718.55023        22.60023  23341756.81124      2280.80024        28.30024
C29  21575809.55123      -339.95023        23.10023  21577701.24124      -451.45024        28.60024
C20  22505485.45024     -1091.85924        26.20024  22507382.53625     -1446.90025        32.40025
C19  22224806.85924      1089.30024        23.60024  22226697.95026      1449.20226        35.80026
C13                                                  39093182.92624      -772.20024        28.10024
E02  26058990.50924      -617.04024        27.00024  26057073.33624      -466.80024        29.00024
E04  25126076.55224      -157.80024        28.70024  25124164.17624      -119.24224        25.60024
E06  24607214.05324      1169.11824        26.10024  24605303.47624       869.67824        25.00024
E09  24962531.37224      2286.05924        25.00024  24960613.90023      1713.10023        22.90023
E10  25957007.41124     -1190.47924        28.20024  25955089.93823      -889.60023        23.30023
E11  22942723.15624      -474.93124        26.60024  22940804.48524      -356.45024        23.60024
E25  26199969.71124     -2489.85324        27.80024  26198056.73624     -1853.16524        26.50024
E36  24821141.75423      1045.95023        20.70023  24819223.38223       780.45023        22.20023
> 2026 03 21 15 15 19.4188789  0 22                      
G02  23127776.94625      2122.75025        31.30025                                                
G08  21129788.52525      1433.90025        29.90025  21127424.06224      1068.81724        24.60024
G10  21431355.45425     -1587.20025        31.50025  21428989.79224     -1186.28824        27.70024
G16  24163170.45825     -2961.30025        29.50025                                                
G23  23358144.06624     -2777.90024        27.50024  23355787.09823     -2075.55023        22.10023
G27  20409563.52624      -721.60024        27.10024  20407215.85125      -542.60025        29.50025
G32  21192478.72525      1417.14725        33.30025  21190119.65824      1055.78324        28.50024
R02  20072109.34125      2697.05025        29.70025
C60                                                  38538875.36524        62.40024        24.10024
C35  23339424.42623      1717.25023        20.30023  23341311.61924      2277.20024        28.40024
C29  21575897.39024      -345.13724        24.40024  21577792.67824      -449.35024        28.70024
C20  22505768.15423     -1096.10023        21.70023  22507662.24325     -1453.41125        29.80025
C19  22224528.95224      1086.50024        27.30024  22226418.24425      1443.61025        35.00025
C13                                                  39093320.53025      -775.51625        30.30025
E02  26059113.12424      -631.55024        27.40024  26057192.35424      -472.48824        27.70024
E04  25126105.63224      -166.03224        29.00024  25124191.75724      -124.35224        24.70024
E06  24606995.50424      1169.85024        26.20024  24605083.42824       869.95024        23.70024
E09  24962094.57524      2285.83324        25.10024  24960175.90323      1703.20023        21.60023
E10  25957219.96423     -1201.30023        22.10023  25955320.77824      -894.70024        24.00024
E11  22942818.19024      -482.35024        24.20024                                                
E25  26200441.58525     -2492.14725        33.60025  26198531.30724     -1860.30024        27.60024
E36  24820933.69824      1041.11124        24.50024  24819027.01824       778.75024        24.10024
> 2026 03 21 15 15 20.4188789  0 21                      
G02  23127359.63524      2121.90024        28.20024                                                
G08  21129482.13724      1435.15024        26.50024  21127144.95523      1072.60023        21.50023
G10  21431644.15425     -1589.07325        32.30025  21429288.38523     -1186.70023        22.50023
G16  24163731.37024     -2962.25024        25.20024                                                
G23  23358667.80424     -2781.95024        29.00024  23356317.13123     -2076.50023        23.40023
G27  20409709.52524      -721.40024        24.00024  20407354.35623      -540.85023        21.70023
G32  21192210.71125      1417.15925        35.20025  21189852.24424      1058.16424        24.70024
R02  20071604.19124      2697.25024        28.80024
C35                                                  23340868.52624      2275.90024        26.30024
C29  21575985.82923      -339.95023        20.40023  21577870.62424      -453.10024        27.90024
C20                                                  22507933.55524     -1452.20024        29.00024
C19                                                  22226134.04124      1445.85024        28.20024
C13                                                  39093470.42725      -775.39925        30.30025
E04  25126129.91523      -161.70023        22.40023                                                
E06  24606771.85923      1167.50023        21.90023  24604860.08323       872.35023        21.90023
E09  24961655.37924      2280.98824        25.00024  24959746.60023      1707.25023        22.30023
E10  25957454.10123     -1199.20023        22.30023                                                
E11  22942911.12624      -488.61624        24.50024                                                
E25  26200916.45624     -2496.96324        24.20024  26199004.08023     -1858.40023        22.00023
E36  24820741.53124      1044.29024        26.30024  24818824.35823       777.75023        23.40023
E02                                                  26057309.57323      -467.75023        21.30023
> 2026 03 21 15 15 21.4188789  0 22                      
G02  23126968.70625      2122.34925        32.20025                                                
G08  21129237.20625      1433.75025        30.70025  21126876.04124      1071.10024        23.50024
G10  21431955.93925     -1588.83925        32.20025  21429592.97424     -1185.19224        25.70024
G16  24164299.47723     -2958.30023        22.90023                                                
G23  23359202.03425     -2780.99925        31.10025  23356843.86623     -2077.05023        23.30023
G27  20409861.52024      -725.70024        23.80024  20407491.66123      -542.40023        20.90023
G32  21191934.90225      1417.80925        31.50025  21189582.13124      1057.24724        25.20024
R02  20071079.25424      2695.75024        27.30024
R15  23968077.21823     -2036.10023        20.20023
C35  23338548.73223      1715.90023        21.00023  23340441.02225      2277.53025        31.50025
C29  21576070.97023      -339.65023        21.30023  21577958.46324      -450.65024        28.90024
C20  22506322.17023     -1095.00023        18.70023  22508220.45624     -1452.15024        25.50024
C19  22223975.83523      1088.95023        18.00023  22225885.81224      1449.05024        26.10024
C13                                                  39093621.22224      -780.10024        23.70024
E02  26059335.87023      -630.10023        21.50023  26057434.28723      -470.95023        20.70023
E04  25126167.98924      -163.34524        26.40024  25124251.71523      -123.80023        19.50023
E06  24606548.51424      1166.96124        25.50024  24604640.33523       874.80023        20.90023
E09  24961232.67124      2283.85024        23.60024                                                
E10  25957684.94224     -1196.75524        25.50024                                                
E11  22942990.27124      -482.90024        24.20024  22941082.69223      -360.85023        19.50023
E25  26201389.82823     -2488.90023        23.30023  26199479.25123     -1860.70023        21.60023
E36  24820535.57424      1045.76524        28.60024                                                
> 2026 03 21 15 15 22.4188789  0 23                      
G02  23126556.79126      2124.43426        37.10026                                                
G08  21128954.50226      1432.93226        36.90026  21126602.93024      1070.07224        27.70024
G10  21432253.63326     -1587.00826        39.20026  21429894.26625     -1185.21425        30.90025
G16  24164866.38424     -2958.60024        28.60024                                                
G23  23359717.67724     -2780.95024        25.80024  23357375.09923     -2076.20023        22.30023
G27  20409995.22724      -726.90024        27.50024  20407628.36623      -543.05023        22.20023
G32  21191664.18925      1416.32625        31.30025  21189313.81623      1058.80023        21.10023
R02  20070566.00924      2697.20024        26.00024
R15  23968480.13925     -2034.98325        29.60025
C35  23338112.53424      1719.40024        25.00024  23339999.42826      2278.37126        39.30026
C29  21576158.80923      -339.10023        21.10023  21578044.20425      -452.35125        29.60025
C20  22506603.67525     -1095.90025        30.80025  22508496.26525     -1453.26425        34.30025
C19                                                  22225598.01224      1447.87024        29.30024
C13                                                  39093768.72024      -772.30024        28.70024
E02  26059463.58225      -629.77725        31.60025  26057551.80524      -473.06224        24.80024
E04  25126203.06525      -166.55225        31.00025  25124287.09124      -123.26824        25.70024
E06  24606334.16224      1164.30924        24.70024  24604415.49124       870.35024        23.60024
E09  24960779.08523      2284.05023        21.00023  24958872.70523      1703.35023        19.60023
E10  25957914.88225     -1197.10025        31.30025  25956000.70823      -892.90023        21.10023
E11  22943091.30125      -481.66125        30.30025  22941173.52924      -359.63824        25.80024
E25  26201870.39624     -2490.01324        25.20024  26199958.61923     -1861.25023        21.30023
E34  28417327.06723      1766.50023        18.10023  28415416.78922      1316.65022        16.10022
E36  24820338.61026      1045.16026        36.00026  24818430.13124       780.10024        25.90024
> 2026 03 21 15 15 23.4188789  0 23                      
G02  23126149.97326      2127.64826        39.70026                                                
G08  21128686.48826      1435.84426        40.90026  21126329.81925      1072.56425        29.90025
G10  21432546.23026     -1586.60926        37.80026  21430196.15725     -1184.07025        31.00025
G16  24165424.59824     -2952.70024        26.70024                                                
G23  23360251.00824     -2781.35024        23.70024                                                
G27  20410118.14225      -722.49225        34.80025  20407764.77124      -541.08524        25.00024
G32  21191406.66725      1416.08125        30.50025                                                
R02  20070087.24125      2696.05725        29.80025
R15  23968871.36925     -2033.21925        31.10025
C35  23337673.63824      1718.85024        28.00024  23339560.53126      2280.84126        40.20026
C29  21576240.65223      -341.05023        21.50023  21578134.14225      -451.80425        31.50025
C20  22506883.08224     -1094.50024        27.00024  22508772.67426     -1453.37926        36.70026
C19  22223420.01923      1088.50023        20.90023  22225309.01225      1445.78925        33.30025
C13                                                  39093916.21825      -775.19725        29.90025
E02  26059583.19925      -625.39025        34.70025  26057670.52324      -473.63524        27.30024
E04  25126228.84725      -165.25725        30.90025  25124317.37024      -122.70324        28.30024
E06  24606108.71824      1167.91624        27.10024  24604197.84123       868.40023        21.40023
E09  24960362.67324      2289.17624        25.10024  24958442.50323      1701.35023        21.80023
E10  25958143.02525     -1197.61725        29.60025  25956230.04924      -888.60324        26.00024
E11  22943180.34025      -481.06425        29.80025  22941265.26624      -358.74524        27.30024
E25  26202337.77224     -2487.05024        28.70024  26200429.89323     -1855.90023        21.40023
E34  28416976.90923      1769.45023        21.80023  28415078.02423      1322.00023        22.40023
E36  24820138.64925      1049.26225        35.10025  24818229.57025       783.66525        29.50025
> 2026 03 21 15 15 24.4188789  0 27                      
G02  23125745.55225      2119.72025        34.00025                                                
G08  21128412.17826      1428.61426        39.10026  21126058.50724      1066.51624        28.60024
G10  21432855.31626     -1594.25326        39.30026  21430498.34825     -1190.50725        30.40025
G16  24165965.12324     -2963.95024        28.00024                                                
G23  23360781.94024     -2788.65024        25.60024  23358443.85923     -2085.10023        18.60023
G27  20410258.14526      -730.98126        37.60026  20407904.77525      -546.42225        29.60025
G32  21191132.05825      1409.28625        33.80025  21188778.98723      1056.20023        18.50023
R02  20069588.08625      2687.09125        31.90025
R15  23969246.40926     -2039.03026        35.50026
R23  22985711.59622     -2532.80022        14.90022
C60                                                  38538860.67524        28.40024        25.90024
C35  23337237.14024      1713.93224        26.50024  23339124.33327      2273.98927        42.90027
C30                                                  24697545.71824     -2487.25024        23.80024
C29  21576329.69123      -346.20023        22.10023  21578218.98325      -459.84025        34.10025
C20  22507162.78825     -1101.13225        30.40025  22509051.48125     -1461.99725        32.70025
C19  22223141.81224      1086.26824        24.60024  22225035.60125      1437.06125        31.90025
C13                                                  39094068.21324      -784.05024        28.90024
E02  26059701.91725      -632.94425        34.10025  26057789.24124      -474.87024        27.00024
